stop_id,stop_name,visible,fare_zone_id,stop_lon,stop_lat,location_type,parent_station,stop_timezone,geometry_id,equipment_id
StopPoint:OM14112,Métro Rond-Point du Prado,1,,5.392388,43.271531,0,StopArea:CTP-OM14112,,,
StopPoint:OM11747,Métro Rond-Point du Prado,1,,5.392521,43.270164,0,StopArea:CTP-OM14112,,,
StopPoint:OM11748,Michelet Huveaune,1,,5.39387,43.26777,0,StopArea:CTP-OM14112,,,
StopPoint:OM11749,Michelet Ramon,1,,5.394792,43.266134,0,StopArea:CTP-OM14112,,,
StopPoint:OM11750,Michelet Ganay,1,,5.395535,43.264827,0,StopArea:CTP-OM14112,,,
StopPoint:OM11751,Michelet Bousquet,1,,5.396592,43.262953,0,StopArea:CTP-OM14112,,,
StopPoint:OM11752,Le Corbusier,1,,5.397615,43.261144,0,StopArea:CTP-OM14112,,,
StopPoint:OM11797,Michelet Luce,1,,5.39884,43.258969,0,StopArea:CTP-OM14112,,,
StopPoint:OM11798,Luce Isaac,1,,5.396653,43.258096,0,StopArea:CTP-OM14112,,,
StopPoint:OM11799,Sainte-Anne,1,,5.394001,43.256822,0,StopArea:CTP-OM14112,,,
StopPoint:OM11800,Sainte-Anne Haifa,1,,5.394044,43.254627,0,StopArea:CTP-OM14112,,,
StopPoint:OM11801,L'Aillaude,1,,5.394482,43.252457,0,StopArea:CTP-OM14112,,,
StopPoint:OM11802,Mazargues Legre,1,,5.396101,43.249812,0,StopArea:CTP-OM14112,,,
StopPoint:OM11803,Jardin Bortoli,1,,5.397738,43.248686,0,StopArea:CTP-OM14112,,,
StopPoint:OM11804,Robespierre,1,,5.401345,43.247118,0,StopArea:CTP-OM14112,,,
StopPoint:OM11805,Mazargues,1,,5.403795,43.245996,0,StopArea:CTP-OM14112,,,
StopPoint:OM11806,Morgiou Seigneurie,1,,5.406221,43.242608,0,StopArea:CTP-OM14112,,,
StopPoint:OM11807,Morgiou Rosiers,1,,5.406903,43.240413,0,StopArea:CTP-OM14112,,,
StopPoint:OM11808,Morgiou Cauviere,1,,5.408733,43.2376,0,StopArea:CTP-OM14112,,,
StopPoint:OM12658,Morgiou Vert Plan,1,,5.410209,43.235768,0,StopArea:CTP-OM14112,,,
StopPoint:OM11809,Morgiou Beauvallon,1,,5.411107,43.234852,0,StopArea:CTP-OM14112,,,
StopPoint:OM11830,Rabat Baumettes,1,,5.412614,43.23382,0,StopArea:CTP-OM14112,,,
StopPoint:OM11831,Rabat Beauvallon,1,,5.413178,43.235387,0,StopArea:CTP-OM14112,,,
StopPoint:OM11832,Rabat Seigneurie,1,,5.413434,43.237196,0,StopArea:CTP-OM14112,,,
StopPoint:OM11833,La Seigneurie,1,,5.414268,43.239213,0,StopArea:CTP-OM14112,,,
StopPoint:OM11834,La Seigneurie,1,,5.414351,43.239381,0,StopArea:CTP-OM14112,,,
StopPoint:OM11835,Rabat Seigneurie,1,,5.413173,43.237608,0,StopArea:CTP-OM14112,,,
StopPoint:OM11836,Rabat Beauvallon,1,,5.412894,43.235377,0,StopArea:CTP-OM14112,,,
StopPoint:OM11810,Baumettes Beauvallon,1,,5.412524,43.233049,0,StopArea:CTP-OM14112,,,
StopPoint:OM11811,Baumettes Rimbaud,1,,5.4141,43.230576,0,StopArea:CTP-OM14112,,,
StopPoint:OM11812,Morgiou Arnaud,1,,5.415236,43.228368,0,StopArea:CTP-OM14112,,,
StopPoint:OM11813,Les Baumettes,1,,5.416414,43.226248,0,StopArea:CTP-OM14112,,,
StopPoint:OM11814,Morgiou Arnaud,1,,5.415379,43.228741,0,StopArea:CTP-OM14112,,,
StopPoint:OM11815,Baumettes Rimbaud,1,,5.414233,43.230761,0,StopArea:CTP-OM14112,,,
StopPoint:OM11816,Beauvallon,1,,5.412005,43.234152,0,StopArea:CTP-OM14112,,,
StopPoint:OM12659,Morgiou Vert Plan,1,,5.410659,43.235675,0,StopArea:CTP-OM14112,,,
StopPoint:OM11817,Morgiou Cauviere,1,,5.409232,43.237271,0,StopArea:CTP-OM14112,,,
StopPoint:OM11818,Morgiou Rosiers,1,,5.407172,43.240378,0,StopArea:CTP-OM14112,,,
StopPoint:OM11819,Morgiou Seigneurie,1,,5.406391,43.242801,0,StopArea:CTP-OM14112,,,
StopPoint:OM11820,Mazargues,1,,5.404054,43.246015,0,StopArea:CTP-OM14112,,,
StopPoint:OM11822,Robespierre,1,,5.401817,43.247895,0,StopArea:CTP-OM14112,,,
StopPoint:OM11823,Zola Concorde,1,,5.399456,43.248134,0,StopArea:CTP-OM14112,,,
StopPoint:OM11824,Mazargues Legre,1,,5.395669,43.25049,0,StopArea:CTP-OM14112,,,
StopPoint:OM11825,L'Aillaude,1,,5.394752,43.252431,0,StopArea:CTP-OM14112,,,
StopPoint:OM11826,Sainte-Anne Haifa,1,,5.394403,43.254437,0,StopArea:CTP-OM14112,,,
StopPoint:OM11827,Sainte-Anne,1,,5.394617,43.256598,0,StopArea:CTP-OM14112,,,
StopPoint:OM11828,Isaac Luce,1,,5.397309,43.257708,0,StopArea:CTP-OM14112,,,
StopPoint:OM12440,Luce Michelet,1,,5.398518,43.258465,0,StopArea:CTP-OM14112,,,
StopPoint:OM11786,Michelet Luce,1,,5.39894,43.259227,0,StopArea:CTP-OM14112,,,
StopPoint:OM11787,Le Corbusier,1,,5.397634,43.261503,0,StopArea:CTP-OM14112,,,
StopPoint:OM11788,Michelet Bousquet,1,,5.396567,43.263404,0,StopArea:CTP-OM14112,,,
StopPoint:OM11789,Michelet Ganay,1,,5.395353,43.26556,0,StopArea:CTP-OM14112,,,
StopPoint:OM11790,Michelet Huveaune,1,,5.393934,43.268038,0,StopArea:CTP-OM14112,,,
StopPoint:OM11887,Métro Sainte-Marguerite Dromel,1,,5.402974,43.270712,0,StopArea:CTP-OM14112,,,
StopPoint:OM11888,La Pugette,1,,5.403472,43.268746,0,StopArea:CTP-OM14112,,,
StopPoint:OM11889,Sainte-Marguerite,1,,5.406089,43.268213,0,StopArea:CTP-OM14112,,,
StopPoint:OM11890,Antide Boyer,1,,5.408789,43.265321,0,StopArea:CTP-OM14112,,,
StopPoint:OM11891,Hôpital Salvator Paoli Calmettes,1,,5.411185,43.263184,0,StopArea:CTP-OM14112,,,
StopPoint:OM11892,Hôpital Sainte-Marguerite,1,,5.412979,43.26245,0,StopArea:CTP-OM14112,,,
StopPoint:OM11893,Grand Pré,1,,5.414415,43.261698,0,StopArea:CTP-OM14112,,,
StopPoint:OM11894,Le Cabot,1,,5.417053,43.258808,0,StopArea:CTP-OM14112,,,
StopPoint:OM11895,Le Redon la Panouse,1,,5.418777,43.257005,0,StopArea:CTP-OM14112,,,
StopPoint:OM11896,Allée des Pins,1,,5.42029,43.254714,0,StopArea:CTP-OM14112,,,
StopPoint:OM11897,La Rouvière,1,,5.421819,43.252017,0,StopArea:CTP-OM14112,,,
StopPoint:OM11898,Le Fangas,1,,5.422122,43.250102,0,StopArea:CTP-OM14112,,,
StopPoint:OM12754,Vallon du Redon,1,,5.42466,43.248815,0,StopArea:CTP-OM14112,,,
StopPoint:OM11913,Clairval Vallon du Redon,1,,5.426761,43.247838,0,StopArea:CTP-OM14112,,,
StopPoint:OM11899,La Gouffone,1,,5.424382,43.246836,0,StopArea:CTP-OM14112,,,
StopPoint:OM11900,Redon,1,,5.42685,43.245155,0,StopArea:CTP-OM14112,,,
StopPoint:OM11764,Le Redon,1,,5.428126,43.244867,0,StopArea:CTP-OM14112,,,
StopPoint:OM11765,Luminy Lachamp,1,,5.432153,43.2461,0,StopArea:CTP-OM14112,,,
StopPoint:OM11766,Luminy Vaufreges,1,,5.435723,43.24615,0,StopArea:CTP-OM14112,,,
StopPoint:OM11767,Luminy H L M,1,,5.438063,43.24209,0,StopArea:CTP-OM14112,,,
StopPoint:OM12708,Cochet Stade,1,,5.432439,43.238394,0,StopArea:CTP-OM14112,,,
StopPoint:OM12709,Piscine,1,,5.432207,43.237745,0,StopArea:CTP-OM14112,,,
StopPoint:OM12710,Esc,1,,5.433356,43.233728,0,StopArea:CTP-OM14112,,,
StopPoint:OM12711,Cochet Piscine,1,,5.432383,43.238027,0,StopArea:CTP-OM14112,,,
StopPoint:OM11768,Luminy Stade,1,,5.435501,43.237704,0,StopArea:CTP-OM14112,,,
StopPoint:OM11769,Luminy ESCAE,1,,5.436336,43.231295,0,StopArea:CTP-OM14112,,,
StopPoint:OM11770,Luminy,1,,5.436994,43.231186,0,StopArea:CTP-OM14112,,,
StopPoint:OM11771,Luminy Stade,1,,5.4357,43.237968,0,StopArea:CTP-OM14112,,,
StopPoint:OM11772,Luminy H L M,1,,5.43822,43.243182,0,StopArea:CTP-OM14112,,,
StopPoint:OM11773,Luminy Vaufreges,1,,5.435485,43.246516,0,StopArea:CTP-OM14112,,,
StopPoint:OM11774,Luminy Lachamp,1,,5.43165,43.246339,0,StopArea:CTP-OM14112,,,
StopPoint:OM11901,Le Redon,1,,5.427165,43.24529,0,StopArea:CTP-OM14112,,,
StopPoint:OM11902,La Gouffone,1,,5.424716,43.246638,0,StopArea:CTP-OM14112,,,
StopPoint:OM11903,Le Fangas,1,,5.422364,43.250032,0,StopArea:CTP-OM14112,,,
StopPoint:OM11904,La Rouvière,1,,5.422023,43.252155,0,StopArea:CTP-OM14112,,,
StopPoint:OM11905,Allée des Pins,1,,5.420718,43.254432,0,StopArea:CTP-OM14112,,,
StopPoint:OM11906,Le Redon la Panouse,1,,5.4193,43.256891,0,StopArea:CTP-OM14112,,,
StopPoint:OM11907,Le Cabot,1,,5.416877,43.259191,0,StopArea:CTP-OM14112,,,
StopPoint:OM11908,Grand Pré,1,,5.414527,43.261722,0,StopArea:CTP-OM14112,,,
StopPoint:OM11909,Hôpital Sainte-Marguerite,1,,5.412165,43.262878,0,StopArea:CTP-OM14112,,,
StopPoint:OM11910,Hôpital Salvator Paoli Calmettes,1,,5.410869,43.263499,0,StopArea:CTP-OM14112,,,
StopPoint:OM11911,Antide Boyer,1,,5.408731,43.26562,0,StopArea:CTP-OM14112,,,
StopPoint:OM12880,Sainte-Marguerite Vauthier,1,,5.408098,43.266939,0,StopArea:CTP-OM14112,,,
StopPoint:OM11912,Sainte-Marguerite,1,,5.406618,43.268207,0,StopArea:CTP-OM14112,,,
StopPoint:OM11667,La Pugette,1,,5.40365,43.268948,0,StopArea:CTP-OM14112,,,
StopPoint:OM1401,Métro Sainte-Marguerite Dromel,1,,5.402832,43.271048,0,StopArea:CTP-OM14112,,,
StopPoint:OM14114,Métro Rond-Point du Prado,1,,5.392507,43.271347,0,StopArea:CTP-OM14112,,,
StopPoint:OM11838,Négresko Paulet,1,,5.389847,43.269628,0,StopArea:CTP-OM14112,,,
StopPoint:OM11839,Mazargues Etienne Milan,1,,5.389585,43.266785,0,StopArea:CTP-OM14112,,,
StopPoint:OM11840,Grand Saint-Giniez,1,,5.3917,43.26445,0,StopArea:CTP-OM14112,,,
StopPoint:OM12600,Mazargues Barral,1,,5.392667,43.263191,0,StopArea:CTP-OM14112,,,
StopPoint:OM11841,Reggio,1,,5.393592,43.260917,0,StopArea:CTP-OM14112,,,
StopPoint:OM11842,Boulevard Verne,1,,5.394079,43.258969,0,StopArea:CTP-OM14112,,,
StopPoint:OM11843,Haifa Ollivary,1,,5.392637,43.253148,0,StopArea:CTP-OM14112,,,
StopPoint:OM11844,Haifa Marie Louise,1,,5.390417,43.251655,0,StopArea:CTP-OM14112,,,
StopPoint:OM11845,Hambourg Haifa,1,,5.390239,43.249232,0,StopArea:CTP-OM14112,,,
StopPoint:OM11846,Hambourg Lancier,1,,5.392844,43.247333,0,StopArea:CTP-OM14112,,,
StopPoint:OM11847,Le Lancier,1,,5.396261,43.246822,0,StopArea:CTP-OM14112,,,
StopPoint:OM11848,Barquière Martheline,1,,5.398471,43.24604,0,StopArea:CTP-OM14112,,,
StopPoint:OM11849,Soude Reginensi,1,,5.399946,43.244406,0,StopArea:CTP-OM14112,,,
StopPoint:OM11850,Soude Poméon,1,,5.402499,43.242706,0,StopArea:CTP-OM14112,,,
StopPoint:OM11851,Océan Pistou,1,,5.401651,43.240635,0,StopArea:CTP-OM14112,,,
StopPoint:OM11852,Océan Réattu,1,,5.398961,43.241395,0,StopArea:CTP-OM14112,,,
StopPoint:OM11853,Collège Roy d'Espagne,1,,5.396835,43.240736,0,StopArea:CTP-OM14112,,,
StopPoint:OM11854,Sormiou Roy d'Espagne,1,,5.398936,43.235389,0,StopArea:CTP-OM14112,,,
StopPoint:OM13073,Sormiou Crosia,1,,5.399116,43.23461,0,StopArea:CTP-OM14112,,,
StopPoint:OM11855,Sormiou Jarre,1,,5.399703,43.233164,0,StopArea:CTP-OM14112,,,
StopPoint:OM11857,La Cayolle,1,,5.401553,43.22911,0,StopArea:CTP-OM14112,,,
StopPoint:OM11858,Sormiou Pierrotti,1,,5.401079,43.230412,0,StopArea:CTP-OM14112,,,
StopPoint:OM11859,Colgate Sormiou,1,,5.401805,43.231773,0,StopArea:CTP-OM14112,,,
StopPoint:OM11860,Colgate Valette,1,,5.404997,43.232815,0,StopArea:CTP-OM14112,,,
StopPoint:OM11861,Colgate Agelasto,1,,5.408783,43.233939,0,StopArea:CTP-OM14112,,,
StopPoint:OM11862,Colgate Agelasto,1,,5.408959,43.23423,0,StopArea:CTP-OM14112,,,
StopPoint:OM11863,Colgate Valette,1,,5.405124,43.233126,0,StopArea:CTP-OM14112,,,
StopPoint:OM11864,Colgate Sormiou,1,,5.40234,43.232118,0,StopArea:CTP-OM14112,,,
StopPoint:OM11866,La Cayolle,1,,5.401747,43.229302,0,StopArea:CTP-OM14112,,,
StopPoint:OM11868,Sormiou Jarre,1,,5.399818,43.233475,0,StopArea:CTP-OM14112,,,
StopPoint:OM13072,Sormiou Crosia,1,,5.399413,43.234638,0,StopArea:CTP-OM14112,,,
StopPoint:OM11869,Sormiou Roy d'Espagne,1,,5.399094,43.236041,0,StopArea:CTP-OM14112,,,
StopPoint:OM11870,Collège Roy d'Espagne,1,,5.39741,43.241133,0,StopArea:CTP-OM14112,,,
StopPoint:OM11871,Océan Réattu,1,,5.398408,43.24141,0,StopArea:CTP-OM14112,,,
StopPoint:OM11872,Océan Pistou,1,,5.401272,43.240448,0,StopArea:CTP-OM14112,,,
StopPoint:OM11873,Soude Poméon,1,,5.403292,43.24235,0,StopArea:CTP-OM14112,,,
StopPoint:OM11874,Soude Reginensi,1,,5.400138,43.244544,0,StopArea:CTP-OM14112,,,
StopPoint:OM11875,Barquière Martheline,1,,5.39866,43.245899,0,StopArea:CTP-OM14112,,,
StopPoint:OM11876,Le Lancier,1,,5.395753,43.246746,0,StopArea:CTP-OM14112,,,
StopPoint:OM11877,Hambourg Lancier,1,,5.39313,43.247379,0,StopArea:CTP-OM14112,,,
StopPoint:OM11878,Hambourg Haifa,1,,5.390564,43.249331,0,StopArea:CTP-OM14112,,,
StopPoint:OM11879,Haifa Marie Louise,1,,5.390802,43.251491,0,StopArea:CTP-OM14112,,,
StopPoint:OM11880,Haifa Ollivary,1,,5.393185,43.253276,0,StopArea:CTP-OM14112,,,
StopPoint:OM11881,Sainte-Anne,1,,5.394298,43.257084,0,StopArea:CTP-OM14112,,,
StopPoint:OM11882,Boulevard Verne,1,,5.394256,43.259297,0,StopArea:CTP-OM14112,,,
StopPoint:OM11883,Reggio,1,,5.393789,43.261163,0,StopArea:CTP-OM14112,,,
StopPoint:OM12745,Mazargues Barral,1,,5.392853,43.263213,0,StopArea:CTP-OM14112,,,
StopPoint:OM11884,Grand Saint-Giniez,1,,5.390941,43.2652,0,StopArea:CTP-OM14112,,,
StopPoint:OM11885,Mazargues Etienne Milan,1,,5.389608,43.26745,0,StopArea:CTP-OM14112,,,
StopPoint:OM11886,Négresko Paulet,1,,5.388762,43.268895,0,StopArea:CTP-OM14112,,,
StopPoint:OM12855,Négresko,1,,5.391315,43.269919,0,StopArea:CTP-OM14112,,,
StopPoint:OM11991,Magdelon,1,,5.401376,43.248385,0,StopArea:CTP-OM14112,,,
StopPoint:OM11992,Concorde Obélisque,1,,5.403296,43.250254,0,StopArea:CTP-OM14112,,,
StopPoint:OM11978,Concorde Obélisque,1,,5.402872,43.250149,0,StopArea:CTP-OM14112,,,
StopPoint:OM11979,Magdelon,1,,5.401338,43.248602,0,StopArea:CTP-OM14112,,,
StopPoint:OM1570,Métro la Rose,1,,5.42958,43.332862,0,StopArea:CTP-OM14112,,,
StopPoint:OM1571,La Rose Poste,1,,5.428116,43.331528,0,StopArea:CTP-OM14112,,,
StopPoint:OM1572,La Grave la Rose,1,,5.427228,43.329908,0,StopArea:CTP-OM14112,,,
StopPoint:OM1573,La Rose,1,,5.429677,43.33009,0,StopArea:CTP-OM14112,,,
StopPoint:OM1574,La Rose Boulevard Neuf,1,,5.432648,43.331263,0,StopArea:CTP-OM14112,,,
StopPoint:OM1575,La Croix Rouge Val Plan,1,,5.435009,43.332337,0,StopArea:CTP-OM14112,,,
StopPoint:OM1576,La Bégude,1,,5.438516,43.333172,0,StopArea:CTP-OM14112,,,
StopPoint:OM12814,La Bégude Sud,1,,5.440967,43.333614,0,StopArea:CTP-OM14112,,,
StopPoint:OM1577,La Ravelle,1,,5.442881,43.33461,0,StopArea:CTP-OM14112,,,
StopPoint:OM1578,La Croix Rouge Église,1,,5.448336,43.334552,0,StopArea:CTP-OM14112,,,
StopPoint:OM1579,La Croix Rouge,1,,5.451267,43.334755,0,StopArea:CTP-OM14112,,,
StopPoint:OM1580,Delprat Vallon Vert,1,,5.453085,43.334891,0,StopArea:CTP-OM14112,,,
StopPoint:OM1581,Les Bartavelles,1,,5.456157,43.33339,0,StopArea:CTP-OM14112,,,
StopPoint:OM1582,Fournacle les Aurengues,1,,5.458107,43.332767,0,StopArea:CTP-OM14112,,,
StopPoint:OM12882,Cité la Marie Basse,1,,5.457525,43.330221,0,StopArea:CTP-OM14112,,,
StopPoint:OM12884,Cité la Marie Haute,1,,5.456052,43.328969,0,StopArea:CTP-OM14112,,,
StopPoint:OM12885,Cité la Marie Basse,1,,5.457718,43.32946,0,StopArea:CTP-OM14112,,,
StopPoint:OM1584,Fournacle les Aurengues,1,,5.458384,43.332876,0,StopArea:CTP-OM14112,,,
StopPoint:OM1585,Les Bartavelles,1,,5.455694,43.333925,0,StopArea:CTP-OM14112,,,
StopPoint:OM1586,Delprat Vallon Vert,1,,5.453764,43.334916,0,StopArea:CTP-OM14112,,,
StopPoint:OM1587,La Croix Rouge,1,,5.451316,43.334978,0,StopArea:CTP-OM14112,,,
StopPoint:OM1588,La Croix Rouge Église,1,,5.447885,43.334871,0,StopArea:CTP-OM14112,,,
StopPoint:OM1589,La Ravelle,1,,5.442639,43.33468,0,StopArea:CTP-OM14112,,,
StopPoint:OM1590,La Bégude,1,,5.437867,43.333244,0,StopArea:CTP-OM14112,,,
StopPoint:OM1591,La Croix Rouge Val Plan,1,,5.43493,43.332465,0,StopArea:CTP-OM14112,,,
StopPoint:OM1592,La Rose Boulevard Neuf,1,,5.432778,43.331403,0,StopArea:CTP-OM14112,,,
StopPoint:OM1593,La Rose,1,,5.428861,43.329807,0,StopArea:CTP-OM14112,,,
StopPoint:OM1594,La Grave la Rose,1,,5.427524,43.329918,0,StopArea:CTP-OM14112,,,
StopPoint:OM1595,La Rose Poste,1,,5.428499,43.331553,0,StopArea:CTP-OM14112,,,
StopPoint:OM1596,Métro la Rose,1,,5.430439,43.333485,0,StopArea:CTP-OM14112,,,
StopPoint:OM11718,Madrague de Montredon,1,,5.354633,43.231085,0,StopArea:CTP-OM14112,,,
StopPoint:OM12354,Saména,1,,5.352409,43.228549,0,StopArea:CTP-OM14112,,,
StopPoint:OM12356,Escalette,1,,5.34835,43.225237,0,StopArea:CTP-OM14112,,,
StopPoint:OM12739,Calanque Blanche,1,,5.346298,43.223379,0,StopArea:CTP-OM14112,,,
StopPoint:OM12357,Roches Blanches,1,,5.345507,43.218618,0,StopArea:CTP-OM14112,,,
StopPoint:OM12358,Les Goudes,1,,5.346168,43.217143,0,StopArea:CTP-OM14112,,,
StopPoint:OM12359,Delabre Pelaprat,1,,5.347316,43.215366,0,StopArea:CTP-OM14112,,,
StopPoint:OM12360,Callelongue,1,,5.353312,43.212716,0,StopArea:CTP-OM14112,,,
StopPoint:OM12361,Delabre Pelaprat,1,,5.348381,43.21504,0,StopArea:CTP-OM14112,,,
StopPoint:OM12362,Les Goudes,1,,5.346445,43.217045,0,StopArea:CTP-OM14112,,,
StopPoint:OM12363,Roches Blanches,1,,5.345796,43.218502,0,StopArea:CTP-OM14112,,,
StopPoint:OM12740,Calanque Blanche,1,,5.346443,43.223339,0,StopArea:CTP-OM14112,,,
StopPoint:OM12364,Escalette,1,,5.348525,43.225061,0,StopArea:CTP-OM14112,,,
StopPoint:OM12365,Saména,1,,5.353649,43.228748,0,StopArea:CTP-OM14112,,,
StopPoint:OM11719,Madrague Mont Rose,1,,5.35559,43.231742,0,StopArea:CTP-OM14112,,,
StopPoint:OM11943,Corail Lycée,1,,5.377269,43.240077,0,StopArea:CTP-OM14112,,,
StopPoint:OM13773,Castellane,1,,5.384103,43.284959,0,StopArea:CTP-OM14112,,,
StopPoint:OM11494,Prado Dupré,1,,5.385567,43.282411,0,StopArea:CTP-OM14112,,,
StopPoint:OM11696,Prado Périer,1,,5.387469,43.279057,0,StopArea:CTP-OM14112,,,
StopPoint:OM11697,Prado Borde,1,,5.388267,43.27764,0,StopArea:CTP-OM14112,,,
StopPoint:OM11698,Prado Louvain,1,,5.389234,43.275922,0,StopArea:CTP-OM14112,,,
StopPoint:OM11699,Prado Rodocanachi,1,,5.39026,43.274149,0,StopArea:CTP-OM14112,,,
StopPoint:OM12736,Rond-Point du Prado,1,,5.390887,43.27298,0,StopArea:CTP-OM14112,,,
StopPoint:OM11753,Michelet Luce,1,,5.399075,43.258521,0,StopArea:CTP-OM14112,,,
StopPoint:OM11754,Michelet Taine,1,,5.400152,43.256584,0,StopArea:CTP-OM14112,,,
StopPoint:OM11755,Michelet Bonneaude,1,,5.401636,43.253961,0,StopArea:CTP-OM14112,,,
StopPoint:OM11756,Michelet Blanc,1,,5.402348,43.252781,0,StopArea:CTP-OM14112,,,
StopPoint:OM11757,Obélisque,1,,5.4031,43.25142,0,StopArea:CTP-OM14112,,,
StopPoint:OM14251,Sainte-Trinité,1,,5.406365,43.247829,0,StopArea:CTP-OM14112,,,
StopPoint:OM11760,Roubin,1,,5.411538,43.245433,0,StopArea:CTP-OM14112,,,
StopPoint:OM11761,Centre Commercial Valmante,1,,5.416612,43.245764,0,StopArea:CTP-OM14112,,,
StopPoint:OM11763,Lotissement Valmont,1,,5.424279,43.245148,0,StopArea:CTP-OM14112,,,
StopPoint:OM13872,Luminy,1,,5.437081,43.230987,0,StopArea:CTP-OM14112,,,
StopPoint:OM13772,Luminy,1,,5.436914,43.23133,0,StopArea:CTP-OM14112,,,
StopPoint:OM11775,Le Redon,1,,5.427185,43.244984,0,StopArea:CTP-OM14112,,,
StopPoint:OM11776,Lotissement Valmont,1,,5.423427,43.245542,0,StopArea:CTP-OM14112,,,
StopPoint:OM11778,Centre Commercial Valmante,1,,5.415492,43.245751,0,StopArea:CTP-OM14112,,,
StopPoint:OM11779,Roubin,1,,5.411544,43.24554,0,StopArea:CTP-OM14112,,,
StopPoint:OM14252,Sainte-Trinité,1,,5.406491,43.247879,0,StopArea:CTP-OM14112,,,
StopPoint:OM11782,Obélisque,1,,5.403817,43.251022,0,StopArea:CTP-OM14112,,,
StopPoint:OM11783,Michelet Blanc,1,,5.402772,43.252418,0,StopArea:CTP-OM14112,,,
StopPoint:OM11784,Michelet Bonneaude,1,,5.401458,43.254776,0,StopArea:CTP-OM14112,,,
StopPoint:OM11785,Michelet Taine,1,,5.400243,43.256906,0,StopArea:CTP-OM14112,,,
StopPoint:OM11791,Métro Rond-Point du Prado,1,,5.392223,43.271036,0,StopArea:CTP-OM14112,,,
StopPoint:OM11736,Rond-Point du Prado,1,,5.39113,43.273162,0,StopArea:CTP-OM14112,,,
StopPoint:OM11737,Prado Rodocanachi,1,,5.390137,43.274854,0,StopArea:CTP-OM14112,,,
StopPoint:OM11738,Prado Louvain,1,,5.389158,43.276572,0,StopArea:CTP-OM14112,,,
StopPoint:OM11739,Prado Borde,1,,5.388167,43.2783,0,StopArea:CTP-OM14112,,,
StopPoint:OM11740,Prado Périer,1,,5.387615,43.27926,0,StopArea:CTP-OM14112,,,
StopPoint:OM11090,Prado Dupré,1,,5.386233,43.281745,0,StopArea:CTP-OM14112,,,
StopPoint:OM11091,Castellane,1,,5.38431,43.285162,0,StopArea:CTP-OM14112,,,
StopPoint:OM1201,Canebière Bourse,1,,5.376711,43.296717,0,StopArea:CTP-OM14112,,,
StopPoint:OM1419,Barbusse Colbert,1,,5.374275,43.298368,0,StopArea:CTP-OM14112,,,
StopPoint:OM12530,Métro Colbert,1,,5.374486,43.300035,0,StopArea:CTP-OM14112,,,
StopPoint:OM1420,Métro Jules Guesde,1,,5.374347,43.301828,0,StopArea:CTP-OM14112,,,
StopPoint:OM1481,Pelletan Marceau,1,,5.374078,43.303255,0,StopArea:CTP-OM14112,,,
StopPoint:OM1482,Place de Strasbourg,1,,5.373485,43.306232,0,StopArea:CTP-OM14112,,,
StopPoint:OM1450,Strasbourg Amiens,1,,5.375161,43.306967,0,StopArea:CTP-OM14112,,,
StopPoint:OM1451,Strasbourg Desaix,1,,5.376411,43.307777,0,StopArea:CTP-OM14112,,,
StopPoint:OM1452,Strasbourg,1,,5.379447,43.309534,0,StopArea:CTP-OM14112,,,
StopPoint:OM1426,National Loubon,1,,5.378438,43.310948,0,StopArea:CTP-OM14112,,,
StopPoint:OM11019,Loubon Bellevue,1,,5.379264,43.311887,0,StopArea:CTP-OM14112,,,
StopPoint:OM11020,Loubon Barbini,1,,5.383107,43.31283,0,StopArea:CTP-OM14112,,,
StopPoint:OM11021,Place Caffo,1,,5.384817,43.312791,0,StopArea:CTP-OM14112,,,
StopPoint:OM1211,Perrin Guigou,1,,5.389026,43.315063,0,StopArea:CTP-OM14112,,,
StopPoint:OM1212,5 Avenues Burel,1,,5.390153,43.31772,0,StopArea:CTP-OM14112,,,
StopPoint:OM1213,Sainte-Marthe Colonel,1,,5.390393,43.318756,0,StopArea:CTP-OM14112,,,
StopPoint:OM1214,Sainte-Marthe Bougie,1,,5.389517,43.322432,0,StopArea:CTP-OM14112,,,
StopPoint:OM1109,La Marine,1,,5.388097,43.326312,0,StopArea:CTP-OM14112,,,
StopPoint:OM1110,Bertrandon,1,,5.387924,43.328386,0,StopArea:CTP-OM14112,,,
StopPoint:OM1111,Sainte-Marthe le Camp,1,,5.389314,43.331359,0,StopArea:CTP-OM14112,,,
StopPoint:OM1112,Sainte-Marthe Jourdan,1,,5.390786,43.333556,0,StopArea:CTP-OM14112,,,
StopPoint:OM1113,Sainte-Marthe Peupliers,1,,5.392259,43.335987,0,StopArea:CTP-OM14112,,,
StopPoint:OM1114,Sainte-Marthe,1,,5.391914,43.338767,0,StopArea:CTP-OM14112,,,
StopPoint:OM1115,Nungesser,1,,5.386834,43.340782,0,StopArea:CTP-OM14112,,,
StopPoint:OM1116,La Simiane,1,,5.386627,43.341974,0,StopArea:CTP-OM14112,,,
StopPoint:OM1117,Tour Sainte,1,,5.384763,43.344006,0,StopArea:CTP-OM14112,,,
StopPoint:OM1118,Coxe Massenet,1,,5.38221,43.345805,0,StopArea:CTP-OM14112,,,
StopPoint:OM1119,Saint-Joseph,1,,5.378918,43.347166,0,StopArea:CTP-OM14112,,,
StopPoint:OM1120,Saint-Joseph les Lions,1,,5.375666,43.349281,0,StopArea:CTP-OM14112,,,
StopPoint:OM1121,Castellas les Lions,1,,5.374479,43.3506,0,StopArea:CTP-OM14112,,,
StopPoint:OM1122,Le Castellas,1,,5.372757,43.352528,0,StopArea:CTP-OM14112,,,
StopPoint:OM1159,La Sylve le Castellas,1,,5.371447,43.354085,0,StopArea:CTP-OM14112,,,
StopPoint:OM12561,Les Aygalades,1,,5.369599,43.355963,0,StopArea:CTP-OM14112,,,
StopPoint:OM1177,La Sylve le Castellas,1,,5.371357,43.353773,0,StopArea:CTP-OM14112,,,
StopPoint:OM1123,Le Castellas,1,,5.372953,43.352037,0,StopArea:CTP-OM14112,,,
StopPoint:OM1124,Castellas les Lions,1,,5.375097,43.349468,0,StopArea:CTP-OM14112,,,
StopPoint:OM1125,Saint-Joseph les Lions,1,,5.376533,43.34797,0,StopArea:CTP-OM14112,,,
StopPoint:OM1126,Saint-Joseph,1,,5.378194,43.346287,0,StopArea:CTP-OM14112,,,
StopPoint:OM1127,Coxe Mairie 13-14,1,,5.380277,43.345841,0,StopArea:CTP-OM14112,,,
StopPoint:OM1128,Coxe Massenet,1,,5.382058,43.345503,0,StopArea:CTP-OM14112,,,
StopPoint:OM1129,Tour Sainte,1,,5.384754,43.343826,0,StopArea:CTP-OM14112,,,
StopPoint:OM1130,La Simiane,1,,5.386418,43.341756,0,StopArea:CTP-OM14112,,,
StopPoint:OM1131,Nungesser,1,,5.386673,43.340534,0,StopArea:CTP-OM14112,,,
StopPoint:OM1132,Sainte-Marthe,1,,5.391768,43.338564,0,StopArea:CTP-OM14112,,,
StopPoint:OM1133,Sainte-Marthe Peupliers,1,,5.391983,43.336598,0,StopArea:CTP-OM14112,,,
StopPoint:OM13156,Sainte-Marthe Vert Bois,1,,5.391614,43.335283,0,StopArea:CTP-OM14112,,,
StopPoint:OM1134,Sainte-Marthe Jourdan,1,,5.390688,43.333784,0,StopArea:CTP-OM14112,,,
StopPoint:OM1135,Sainte-Marthe le Camp,1,,5.389074,43.33124,0,StopArea:CTP-OM14112,,,
StopPoint:OM1136,Bertrandon,1,,5.387797,43.32901,0,StopArea:CTP-OM14112,,,
StopPoint:OM1137,La Marine,1,,5.388219,43.324897,0,StopArea:CTP-OM14112,,,
StopPoint:OM1215,Sainte-Marthe Bougie,1,,5.389374,43.3216,0,StopArea:CTP-OM14112,,,
StopPoint:OM1216,Sainte-Marthe Colonel,1,,5.389971,43.319398,0,StopArea:CTP-OM14112,,,
StopPoint:OM1217,5 Avenues Burel,1,,5.389645,43.317213,0,StopArea:CTP-OM14112,,,
StopPoint:OM1218,Burel Plombières,1,,5.388458,43.315736,0,StopArea:CTP-OM14112,,,
StopPoint:OM1219,Plombières Arnal,1,,5.383746,43.315815,0,StopArea:CTP-OM14112,,,
StopPoint:OM1220,Place Caffo,1,,5.384613,43.312895,0,StopArea:CTP-OM14112,,,
StopPoint:OM1221,Loubon Barbini,1,,5.382717,43.312904,0,StopArea:CTP-OM14112,,,
StopPoint:OM1222,Loubon Bellevue,1,,5.37929,43.312147,0,StopArea:CTP-OM14112,,,
StopPoint:OM1223,National Loubon,1,,5.378521,43.310649,0,StopArea:CTP-OM14112,,,
StopPoint:OM1459,Strasbourg Desaix,1,,5.376981,43.308309,0,StopArea:CTP-OM14112,,,
StopPoint:OM1460,Place de Strasbourg,1,,5.373733,43.306504,0,StopArea:CTP-OM14112,,,
StopPoint:OM1524,Paris Forbin,1,,5.372502,43.305585,0,StopArea:CTP-OM14112,,,
StopPoint:OM1525,Métro Jules Guesde,1,,5.374325,43.302108,0,StopArea:CTP-OM14112,,,
StopPoint:OM1381,Métro Colbert Hôtel de Région,1,,5.374299,43.30022,0,StopArea:CTP-OM14112,,,
StopPoint:OM13053,Barbusse-Colbert,1,,5.373991,43.29864,0,StopArea:CTP-OM14112,,,
StopPoint:OM13341,Reformes Canebière,1,,5.385692,43.300365,0,StopArea:CTP-OM14112,,,
StopPoint:OM13342,Voltaire Saint-Charles,1,,5.384812,43.302756,0,StopArea:CTP-OM14112,,,
StopPoint:OM1207,National Guibal,1,,5.384218,43.305461,0,StopArea:CTP-OM14112,,,
StopPoint:OM1208,Belle de Mai National,1,,5.381927,43.308466,0,StopArea:CTP-OM14112,,,
StopPoint:OM1209,Clovis Hugues,1,,5.384442,43.311542,0,StopArea:CTP-OM14112,,,
StopPoint:OM1210,Belle de Mai Loubon,1,,5.385835,43.312951,0,StopArea:CTP-OM14112,,,
StopPoint:OM1333,Cade Mouton,1,,5.39242,43.331846,0,StopArea:CTP-OM14112,,,
StopPoint:OM1335,Jourdan Creche,1,,5.395302,43.333689,0,StopArea:CTP-OM14112,,,
StopPoint:OM1336,Jourdan le Mail,1,,5.398413,43.333106,0,StopArea:CTP-OM14112,,,
StopPoint:OM11006,Busserine H. L. M,1,,5.398363,43.331722,0,StopArea:CTP-OM14112,,,
StopPoint:OM11007,Théâtre du Merlan,1,,5.397733,43.329366,0,StopArea:CTP-OM14112,,,
StopPoint:OM11008,Centre Commercial du Merlan,1,,5.399846,43.328578,0,StopArea:CTP-OM14112,,,
StopPoint:OM11009,Prosper Mérimée Saint-Paul,1,,5.402096,43.329422,0,StopArea:CTP-OM14112,,,
StopPoint:OM11010,Merlan Sainte-Marthe,1,,5.405168,43.330647,0,StopArea:CTP-OM14112,,,
StopPoint:OM11059,Merlan Trompette,1,,5.406896,43.332334,0,StopArea:CTP-OM14112,,,
StopPoint:OM11060,Merlan Verdon,1,,5.407576,43.333744,0,StopArea:CTP-OM14112,,,
StopPoint:OM11061,Merlan Brissac,1,,5.407431,43.336104,0,StopArea:CTP-OM14112,,,
StopPoint:OM11062,Merlan Village,1,,5.407707,43.338497,0,StopArea:CTP-OM14112,,,
StopPoint:OM11063,Saint-Jérôme IUT,1,,5.40893,43.341331,0,StopArea:CTP-OM14112,,,
StopPoint:OM11064,Saint-Jérôme IUT,1,,5.408545,43.341504,0,StopArea:CTP-OM14112,,,
StopPoint:OM11065,Merlan Village,1,,5.407448,43.338271,0,StopArea:CTP-OM14112,,,
StopPoint:OM11066,Merlan Brissac,1,,5.407155,43.336472,0,StopArea:CTP-OM14112,,,
StopPoint:OM11067,Merlan Verdon,1,,5.40742,43.334063,0,StopArea:CTP-OM14112,,,
StopPoint:OM11068,Merlan Trompette,1,,5.406849,43.332838,0,StopArea:CTP-OM14112,,,
StopPoint:OM1340,Merlan Sainte-Marthe,1,,5.404213,43.330531,0,StopArea:CTP-OM14112,,,
StopPoint:OM1980,Prosper Mérimée Saint-Paul,1,,5.401619,43.32948,0,StopArea:CTP-OM14112,,,
StopPoint:OM1981,Centre Commercial du Merlan,1,,5.398955,43.328504,0,StopArea:CTP-OM14112,,,
StopPoint:OM1982,Théâtre du Merlan,1,,5.398156,43.329912,0,StopArea:CTP-OM14112,,,
StopPoint:OM1983,Busserine H. L. M,1,,5.398886,43.332058,0,StopArea:CTP-OM14112,,,
StopPoint:OM12343,Raimu Edouard Manet,1,,5.399121,43.333445,0,StopArea:CTP-OM14112,,,
StopPoint:OM1361,Collège Edouard Manet,1,,5.398621,43.333999,0,StopArea:CTP-OM14112,,,
StopPoint:OM1362,Jourdan le Mail,1,,5.3982,43.333274,0,StopArea:CTP-OM14112,,,
StopPoint:OM1363,Jourdan Creche,1,,5.395665,43.333786,0,StopArea:CTP-OM14112,,,
StopPoint:OM13452,Cade Mouton,1,,5.392424,43.332001,0,StopArea:CTP-OM14112,,,
StopPoint:OM1224,National Belle de Mai,1,,5.381795,43.307598,0,StopArea:CTP-OM14112,,,
StopPoint:OM1225,National Guibal,1,,5.383526,43.305885,0,StopArea:CTP-OM14112,,,
StopPoint:OM1226,Voltaire Saint-Charles,1,,5.385244,43.303211,0,StopArea:CTP-OM14112,,,
StopPoint:OM1227,Liberté Sembat,1,,5.38325,43.301612,0,StopArea:CTP-OM14112,,,
StopPoint:OM13344,Reformes Canebière,1,,5.385304,43.300184,0,StopArea:CTP-OM14112,,,
StopPoint:OM11022,5 Avenues Burel,1,,5.390142,43.316821,0,StopArea:CTP-OM14112,,,
StopPoint:OM11023,Villecroze Marronniers,1,,5.392114,43.319868,0,StopArea:CTP-OM14112,,,
StopPoint:OM11024,Villecroze Bougie,1,,5.392423,43.322431,0,StopArea:CTP-OM14112,,,
StopPoint:OM11025,Monet Saint-Barthelemy,1,,5.393311,43.323835,0,StopArea:CTP-OM14112,,,
StopPoint:OM13069,Monet Lavandins,1,,5.393885,43.324902,0,StopArea:CTP-OM14112,,,
StopPoint:OM11026,Monet Florida,1,,5.394579,43.326128,0,StopArea:CTP-OM14112,,,
StopPoint:OM11027,Mérimée Corot,1,,5.396854,43.327683,0,StopArea:CTP-OM14112,,,
StopPoint:OM11029,Merlan Tourelle,1,,5.407542,43.341632,0,StopArea:CTP-OM14112,,,
StopPoint:OM11030,Merlan Pâquerettes,1,,5.408561,43.345479,0,StopArea:CTP-OM14112,,,
StopPoint:OM11031,Merlan Guynemer,1,,5.40825,43.346791,0,StopArea:CTP-OM14112,,,
StopPoint:OM11032,Le Merlan,1,,5.407688,43.349424,0,StopArea:CTP-OM14112,,,
StopPoint:OM11046,Le Merlan,1,,5.407471,43.349745,0,StopArea:CTP-OM14112,,,
StopPoint:OM11047,Merlan Guynemer,1,,5.407989,43.346979,0,StopArea:CTP-OM14112,,,
StopPoint:OM11048,Merlan Pâquerettes,1,,5.408277,43.345235,0,StopArea:CTP-OM14112,,,
StopPoint:OM11049,Merlan Tourelle,1,,5.407218,43.341569,0,StopArea:CTP-OM14112,,,
StopPoint:OM11051,Mérimée Corot,1,,5.39679,43.327864,0,StopArea:CTP-OM14112,,,
StopPoint:OM11052,Monet Florida,1,,5.394543,43.326606,0,StopArea:CTP-OM14112,,,
StopPoint:OM13070,Monet Lavandins,1,,5.393656,43.324764,0,StopArea:CTP-OM14112,,,
StopPoint:OM11053,Monet Saint-Barthelemy,1,,5.392982,43.323674,0,StopArea:CTP-OM14112,,,
StopPoint:OM11054,Villecroze Bougie,1,,5.391926,43.321878,0,StopArea:CTP-OM14112,,,
StopPoint:OM11055,Villecroze Marronniers,1,,5.391858,43.319668,0,StopArea:CTP-OM14112,,,
StopPoint:OM11056,5 Avenues Burel,1,,5.38946,43.316975,0,StopArea:CTP-OM14112,,,
StopPoint:OM1418,Canebière Bourse,1,,5.3763,43.296611,0,StopArea:CTP-OM14112,,,
StopPoint:OM1341,Musée de la Moto,1,,5.404065,43.328682,0,StopArea:CTP-OM14112,,,
StopPoint:OM1342,Villecroze les Oliviers,1,,5.405605,43.328225,0,StopArea:CTP-OM14112,,,
StopPoint:OM1343,Collège Rostand,1,,5.407563,43.327306,0,StopArea:CTP-OM14112,,,
StopPoint:OM1344,Les Cèdres,1,,5.410061,43.326326,0,StopArea:CTP-OM14112,,,
StopPoint:OM1345,Marathon Genets,1,,5.411945,43.325859,0,StopArea:CTP-OM14112,,,
StopPoint:OM1346,Marathon Laveran,1,,5.413388,43.327733,0,StopArea:CTP-OM14112,,,
StopPoint:OM11028,Les Lauriers,1,,5.413854,43.328385,0,StopArea:CTP-OM14112,,,
StopPoint:OM14055,Les Oliviers,1,,5.412332,43.330542,0,StopArea:CTP-OM14112,,,
StopPoint:OM14056,Les Lilas,1,,5.410358,43.331133,0,StopArea:CTP-OM14112,,,
StopPoint:OM14057,Saint-Jérôme Faculté,1,,5.410424,43.338003,0,StopArea:CTP-OM14112,,,
StopPoint:OM14058,Saint-Jérôme IUT,1,,5.410244,43.341015,0,StopArea:CTP-OM14112,,,
StopPoint:OM14059,Saint-Jérôme IUT,1,,5.409938,43.341007,0,StopArea:CTP-OM14112,,,
StopPoint:OM14060,Saint-Jérôme Faculté,1,,5.409967,43.337999,0,StopArea:CTP-OM14112,,,
StopPoint:OM14061,Les Lilas,1,,5.410011,43.331143,0,StopArea:CTP-OM14112,,,
StopPoint:OM14062,Les Oliviers,1,,5.4123,43.330353,0,StopArea:CTP-OM14112,,,
StopPoint:OM11050,Les Lauriers,1,,5.413674,43.328462,0,StopArea:CTP-OM14112,,,
StopPoint:OM1352,Marathon Laveran,1,,5.413198,43.327855,0,StopArea:CTP-OM14112,,,
StopPoint:OM1353,Marathon Genets,1,,5.411816,43.325979,0,StopArea:CTP-OM14112,,,
StopPoint:OM1354,Les Cèdres,1,,5.410147,43.326557,0,StopArea:CTP-OM14112,,,
StopPoint:OM1355,Collège Rostand,1,,5.407787,43.327344,0,StopArea:CTP-OM14112,,,
StopPoint:OM1356,Villecroze les Oliviers,1,,5.405579,43.328441,0,StopArea:CTP-OM14112,,,
StopPoint:OM1357,Musée de la Moto,1,,5.403919,43.32919,0,StopArea:CTP-OM14112,,,
StopPoint:OM12582,Métro la Rose,1,,5.429517,43.333062,0,StopArea:CTP-OM14112,,,
StopPoint:OM1977,La Rose Village,1,,5.425117,43.328215,0,StopArea:CTP-OM14112,,,
StopPoint:OM1978,La Rose Fuveau,1,,5.423233,43.327091,0,StopArea:CTP-OM14112,,,
StopPoint:OM12894,Berthe Silva-la Rose,1,,5.421079,43.326691,0,StopArea:CTP-OM14112,,,
StopPoint:OM1599,Berthe Sylva Valdonne,1,,5.419157,43.32757,0,StopArea:CTP-OM14112,,,
StopPoint:OM12138,Valdonne Peypin,1,,5.417864,43.327119,0,StopArea:CTP-OM14112,,,
StopPoint:OM11082,Valdonne Hôpital Laveran,1,,5.416315,43.325806,0,StopArea:CTP-OM14112,,,
StopPoint:OM1351,Laveran Diderot,1,,5.414541,43.325353,0,StopArea:CTP-OM14112,,,
StopPoint:OM12517,Hôpital Laveran,1,,5.413843,43.326802,0,StopArea:CTP-OM14112,,,
StopPoint:OM13927,Les Oliviers,1,,5.412332,43.330542,0,StopArea:CTP-OM14112,,,
StopPoint:OM1979,Les Hirondelles,1,,5.407355,43.331008,0,StopArea:CTP-OM14112,,,
StopPoint:OM1337,Collège Edouard Manet,1,,5.398981,43.333827,0,StopArea:CTP-OM14112,,,
StopPoint:OM1984,Sainte-Marthe Busserine,1,,5.398237,43.336042,0,StopArea:CTP-OM14112,,,
StopPoint:OM1985,La Margeray,1,,5.396871,43.336999,0,StopArea:CTP-OM14112,,,
StopPoint:OM1986,Forge Dolet,1,,5.394195,43.337875,0,StopArea:CTP-OM14112,,,
StopPoint:OM1987,Sainte-Marthe,1,,5.391709,43.339312,0,StopArea:CTP-OM14112,,,
StopPoint:OM1988,Saint-Joseph les Lions,1,,5.376766,43.348413,0,StopArea:CTP-OM14112,,,
StopPoint:OM1989,Chemin de Saint-Antoine,1,,5.373579,43.348971,0,StopArea:CTP-OM14112,,,
StopPoint:OM1990,Autoroute,1,,5.371698,43.348817,0,StopArea:CTP-OM14112,,,
StopPoint:OM1991,Saint-Louis Picardie,1,,5.368918,43.347277,0,StopArea:CTP-OM14112,,,
StopPoint:OM1992,4 Chemins des Aygalades,1,,5.365582,43.3464,0,StopArea:CTP-OM14112,,,
StopPoint:OM1993,Chemin de la Commanderie,1,,5.361399,43.347929,0,StopArea:CTP-OM14112,,,
StopPoint:OM12573,Le Chatelier Saint-Louis,1,,5.359312,43.347835,0,StopArea:CTP-OM14112,,,
StopPoint:OM112,Saint-Louis Rove,1,,5.358578,43.347945,0,StopArea:CTP-OM14112,,,
StopPoint:OM1994,Lycée Saint-Exupéry,1,,5.355551,43.34803,0,StopArea:CTP-OM14112,,,
StopPoint:OM1995,Lycée Saint-Exupéry,1,,5.355009,43.347083,0,StopArea:CTP-OM14112,,,
StopPoint:OM1997,Paul Gaffarel,1,,5.357966,43.348961,0,StopArea:CTP-OM14112,,,
StopPoint:OM1998,Chemin de la Commanderie,1,,5.362565,43.347608,0,StopArea:CTP-OM14112,,,
StopPoint:OM1999,4 Chemins des Aygalades,1,,5.365671,43.346226,0,StopArea:CTP-OM14112,,,
StopPoint:OM11000,Saint-Louis Picardie,1,,5.369271,43.347195,0,StopArea:CTP-OM14112,,,
StopPoint:OM11001,Autoroute,1,,5.371802,43.348688,0,StopArea:CTP-OM14112,,,
StopPoint:OM11002,Chemin de Saint-Antoine,1,,5.374606,43.348807,0,StopArea:CTP-OM14112,,,
StopPoint:OM11003,Sainte-Marthe,1,,5.391953,43.339036,0,StopArea:CTP-OM14112,,,
StopPoint:OM11004,Forge Dolet,1,,5.394269,43.337639,0,StopArea:CTP-OM14112,,,
StopPoint:OM11005,La Margeray,1,,5.397121,43.336371,0,StopArea:CTP-OM14112,,,
StopPoint:OM11011,Les Hirondelles,1,,5.406771,43.330916,0,StopArea:CTP-OM14112,,,
StopPoint:OM13928,Les Oliviers,1,,5.4123,43.330353,0,StopArea:CTP-OM14112,,,
StopPoint:OM12516,Hôpital Laveran,1,,5.413577,43.3269,0,StopArea:CTP-OM14112,,,
StopPoint:OM1347,Laveran Diderot,1,,5.414658,43.324999,0,StopArea:CTP-OM14112,,,
StopPoint:OM11070,Valdonne Hôpital Laveran,1,,5.416667,43.325939,0,StopArea:CTP-OM14112,,,
StopPoint:OM12137,Valdonne Peypin,1,,5.417816,43.326914,0,StopArea:CTP-OM14112,,,
StopPoint:OM1613,Berthe Sylva Valdonne,1,,5.418728,43.327382,0,StopArea:CTP-OM14112,,,
StopPoint:OM11012,La Rose Fuveau,1,,5.422803,43.326663,0,StopArea:CTP-OM14112,,,
StopPoint:OM11013,La Rose Village,1,,5.426456,43.328608,0,StopArea:CTP-OM14112,,,
StopPoint:OM11792,Lachamp Luminy,1,,5.435524,43.247491,0,StopArea:CTP-OM14112,,,
StopPoint:OM13898,Lachamp Augier,1,,5.437286,43.24824,0,StopArea:CTP-OM14112,,,
StopPoint:OM11793,Grands Pins,1,,5.44025,43.248645,0,StopArea:CTP-OM14112,,,
StopPoint:OM13737,Vaufreges,1,,5.445493,43.249609,0,StopArea:CTP-OM14112,,,
StopPoint:OM11794,Vaufreges,1,,5.445625,43.249551,0,StopArea:CTP-OM14112,,,
StopPoint:OM11795,Grands Pins,1,,5.440642,43.248841,0,StopArea:CTP-OM14112,,,
StopPoint:OM13899,Lachamp Augier,1,,5.436969,43.248408,0,StopArea:CTP-OM14112,,,
StopPoint:OM13900,Lachamp Luminy,1,,5.435152,43.247179,0,StopArea:CTP-OM14112,,,
StopPoint:OM11,Métro Bougainville,1,,5.371115,43.321973,0,StopArea:CTP-OM14112,,,
StopPoint:OM12,Les Crottes,1,,5.367486,43.323918,0,StopArea:CTP-OM14112,,,
StopPoint:OM13,Lyon Cap Pinède,1,,5.366662,43.326504,0,StopArea:CTP-OM14112,,,
StopPoint:OM13962,Lyon Oddo,1,,5.365412,43.329894,0,StopArea:CTP-OM14112,,,
StopPoint:OM13963,Billoux Mairie 15-16,1,,5.364476,43.33269,0,StopArea:CTP-OM14112,,,
StopPoint:OM13964,Lyon Raffineries,1,,5.363186,43.336269,0,StopArea:CTP-OM14112,,,
StopPoint:OM13966,Lyon Commanderie,1,,5.362001,43.339495,0,StopArea:CTP-OM14112,,,
StopPoint:OM13967,Saint-Louis la Poste,1,,5.360849,43.341011,0,StopArea:CTP-OM14112,,,
StopPoint:OM13968,Parc Saint-Louis,1,,5.35962,43.343635,0,StopArea:CTP-OM14112,,,
StopPoint:OM13969,Saint-Louis Susini,1,,5.359383,43.346142,0,StopArea:CTP-OM14112,,,
StopPoint:OM114,Cité Saint-Louis,1,,5.354102,43.351407,0,StopArea:CTP-OM14112,,,
StopPoint:OM115,Rove Tuileries,1,,5.3508,43.354683,0,StopArea:CTP-OM14112,,,
StopPoint:OM116,Saint-André P.N,1,,5.346626,43.355708,0,StopArea:CTP-OM14112,,,
StopPoint:OM117,Saint-André,1,,5.342963,43.356826,0,StopArea:CTP-OM14112,,,
StopPoint:OM1295,Rabelais Picaron,1,,5.3388,43.357815,0,StopArea:CTP-OM14112,,,
StopPoint:OM12631,Roussin Picaron,1,,5.337944,43.35818,0,StopArea:CTP-OM14112,,,
StopPoint:OM12645,Roussin Cohen,1,,5.339325,43.361253,0,StopArea:CTP-OM14112,,,
StopPoint:OM12632,Roussin Barnier,1,,5.341571,43.363178,0,StopArea:CTP-OM14112,,,
StopPoint:OM13731,Barnier Giroud,1,,5.343897,43.367196,0,StopArea:CTP-OM14112,,,
StopPoint:OM122,Traverse de la Barre,1,,5.344963,43.368632,0,StopArea:CTP-OM14112,,,
StopPoint:OM123,La Bricarde,1,,5.346892,43.370395,0,StopArea:CTP-OM14112,,,
StopPoint:OM124,Traverse Graille,1,,5.34896,43.371983,0,StopArea:CTP-OM14112,,,
StopPoint:OM125,Boulevard Falcot,1,,5.35186,43.372972,0,StopArea:CTP-OM14112,,,
StopPoint:OM127,Saint-Antoine,1,,5.354469,43.373366,0,StopArea:CTP-OM14112,,,
StopPoint:OM128,Boulevard Falcot,1,,5.351151,43.373081,0,StopArea:CTP-OM14112,,,
StopPoint:OM129,Traverse Graille,1,,5.348803,43.372266,0,StopArea:CTP-OM14112,,,
StopPoint:OM130,La Bricarde,1,,5.345669,43.369871,0,StopArea:CTP-OM14112,,,
StopPoint:OM131,Traverse de la Barre,1,,5.34453,43.368599,0,StopArea:CTP-OM14112,,,
StopPoint:OM12549,Barnier Giroud,1,,5.343574,43.367304,0,StopArea:CTP-OM14112,,,
StopPoint:OM132,La Castellane,1,,5.343,43.365746,0,StopArea:CTP-OM14112,,,
StopPoint:OM12633,Roussin Barnier,1,,5.340553,43.36282,0,StopArea:CTP-OM14112,,,
StopPoint:OM12642,Roussin Cohen,1,,5.338577,43.360852,0,StopArea:CTP-OM14112,,,
StopPoint:OM12634,Roussin Picaron,1,,5.337572,43.358137,0,StopArea:CTP-OM14112,,,
StopPoint:OM1317,Rabelais Picaron,1,,5.339615,43.357612,0,StopArea:CTP-OM14112,,,
StopPoint:OM135,Saint-André,1,,5.343325,43.356672,0,StopArea:CTP-OM14112,,,
StopPoint:OM136,Saint-André P.N,1,,5.345524,43.355847,0,StopArea:CTP-OM14112,,,
StopPoint:OM137,Rove Tuileries,1,,5.350727,43.354478,0,StopArea:CTP-OM14112,,,
StopPoint:OM138,Cité Saint-Louis,1,,5.354005,43.351194,0,StopArea:CTP-OM14112,,,
StopPoint:OM140,Saint-Louis Rove,1,,5.357597,43.34827,0,StopArea:CTP-OM14112,,,
StopPoint:OM14023,Saint-Louis Susini,1,,5.359148,43.346155,0,StopArea:CTP-OM14112,,,
StopPoint:OM14024,Parc Saint-Louis,1,,5.359526,43.343485,0,StopArea:CTP-OM14112,,,
StopPoint:OM14025,Saint-Louis la Poste,1,,5.360473,43.341139,0,StopArea:CTP-OM14112,,,
StopPoint:OM14027,Lyon Commanderie,1,,5.362258,43.338525,0,StopArea:CTP-OM14112,,,
StopPoint:OM14028,Lyon Raffineries,1,,5.363252,43.335647,0,StopArea:CTP-OM14112,,,
StopPoint:OM14029,Billoux Mairie 15-16,1,,5.364158,43.332978,0,StopArea:CTP-OM14112,,,
StopPoint:OM14030,Lyon Oddo,1,,5.365288,43.32987,0,StopArea:CTP-OM14112,,,
StopPoint:OM150,Lyon Cap Pinède,1,,5.366088,43.327294,0,StopArea:CTP-OM14112,,,
StopPoint:OM151,Les Crottes,1,,5.367201,43.324106,0,StopArea:CTP-OM14112,,,
StopPoint:OM152,Magallon Salengro,1,,5.368345,43.322222,0,StopArea:CTP-OM14112,,,
StopPoint:OM153,Métro Bougainville,1,,5.370875,43.321161,0,StopArea:CTP-OM14112,,,
StopPoint:OM1597,Métro la Rose,1,,5.429592,43.333312,0,StopArea:CTP-OM14112,,,
StopPoint:OM13930,Métro la Rose,1,,5.431154,43.333491,0,StopArea:CTP-OM14112,,,
StopPoint:OM13931,Val Plan,1,,5.432738,43.334759,0,StopArea:CTP-OM14112,,,
StopPoint:OM1731,Barielle,1,,5.432291,43.337676,0,StopArea:CTP-OM14112,,,
StopPoint:OM1732,Consolation Gracieuse,1,,5.430168,43.338961,0,StopArea:CTP-OM14112,,,
StopPoint:OM1733,Lycée Artaud,1,,5.424322,43.34045,0,StopArea:CTP-OM14112,,,
StopPoint:OM1734,Consolation Balustres,1,,5.421173,43.339875,0,StopArea:CTP-OM14112,,,
StopPoint:OM1711,Notre-Dame de la Consolation,1,,5.420254,43.339272,0,StopArea:CTP-OM14112,,,
StopPoint:OM13059,Nicolas Appert,1,,5.418114,43.339669,0,StopArea:CTP-OM14112,,,
StopPoint:OM12128,Susini Marie Louise,1,,5.413668,43.339838,0,StopArea:CTP-OM14112,,,
StopPoint:OM12129,Saint-Jérôme IUT,1,,5.411365,43.341001,0,StopArea:CTP-OM14112,,,
StopPoint:OM13932,Saint-Jérôme Parking Relais,1,,5.410306,43.343405,0,StopArea:CTP-OM14112,,,
StopPoint:OM13933,Saint-Jérôme Parking Relais,1,,5.410306,43.343405,0,StopArea:CTP-OM14112,,,
StopPoint:OM12130,Saint-Jérôme IUT,1,,5.411042,43.340965,0,StopArea:CTP-OM14112,,,
StopPoint:OM12131,Susini Marie Louise,1,,5.413366,43.33973,0,StopArea:CTP-OM14112,,,
StopPoint:OM13061,Nicolas Appert,1,,5.417882,43.339478,0,StopArea:CTP-OM14112,,,
StopPoint:OM1671,Notre-Dame de la Consolation,1,,5.420759,43.339509,0,StopArea:CTP-OM14112,,,
StopPoint:OM1735,Consolation Balustres,1,,5.421887,43.339621,0,StopArea:CTP-OM14112,,,
StopPoint:OM1736,Lycée Artaud,1,,5.424738,43.340402,0,StopArea:CTP-OM14112,,,
StopPoint:OM1737,Consolation Gracieuse,1,,5.429172,43.339007,0,StopArea:CTP-OM14112,,,
StopPoint:OM1738,Barielle,1,,5.432478,43.337033,0,StopArea:CTP-OM14112,,,
StopPoint:OM13934,Val Plan,1,,5.432581,43.334826,0,StopArea:CTP-OM14112,,,
StopPoint:OM13935,Métro la Rose,1,,5.431035,43.333576,0,StopArea:CTP-OM14112,,,
StopPoint:OM1189,Métro Bougainville,1,,5.371197,43.321422,0,StopArea:CTP-OM14112,,,
StopPoint:OM13910,Aygalades Gèze,1,,5.366872,43.330102,0,StopArea:CTP-OM14112,,,
StopPoint:OM12887,Aygalades Corot,1,,5.367818,43.333468,0,StopArea:CTP-OM14112,,,
StopPoint:OM1151,Visitation,1,,5.367167,43.337695,0,StopArea:CTP-OM14112,,,
StopPoint:OM1152,ZI de la Delorme,1,,5.365541,43.340726,0,StopArea:CTP-OM14112,,,
StopPoint:OM1153,Parc Blanchard,1,,5.36582,43.343686,0,StopArea:CTP-OM14112,,,
StopPoint:OM1154,4 Chemins des Aygalades,1,,5.366205,43.346769,0,StopArea:CTP-OM14112,,,
StopPoint:OM1155,Traverse de l'Oasis,1,,5.366376,43.348841,0,StopArea:CTP-OM14112,,,
StopPoint:OM1156,Cité des Arts de la Rue,1,,5.36555,43.352102,0,StopArea:CTP-OM14112,,,
StopPoint:OM1157,Aygalades Village,1,,5.366401,43.353274,0,StopArea:CTP-OM14112,,,
StopPoint:OM1158,H.L.M des Aygalades,1,,5.370251,43.353147,0,StopArea:CTP-OM14112,,,
StopPoint:OM1160,Les Aygalades,1,,5.368976,43.356754,0,StopArea:CTP-OM14112,,,
StopPoint:OM1161,Boulevard de la Gare,1,,5.367508,43.357209,0,StopArea:CTP-OM14112,,,
StopPoint:OM1162,Chemin de la Mure,1,,5.365783,43.358138,0,StopArea:CTP-OM14112,,,
StopPoint:OM1163,L'Hermitage Jean Moulin,1,,5.36178,43.36263,0,StopArea:CTP-OM14112,,,
StopPoint:OM1164,Résidence les Borels,1,,5.361184,43.364185,0,StopArea:CTP-OM14112,,,
StopPoint:OM1165,Les Borels,1,,5.363018,43.366472,0,StopArea:CTP-OM14112,,,
StopPoint:OM1190,Tuves Bosphore,1,,5.363284,43.367534,0,StopArea:CTP-OM14112,,,
StopPoint:OM13486,Vallon des Tuves,1,,5.364883,43.367767,0,StopArea:CTP-OM14112,,,
StopPoint:OM1191,Le Canal,1,,5.36901,43.366258,0,StopArea:CTP-OM14112,,,
StopPoint:OM1192,Les Pins,1,,5.372096,43.366108,0,StopArea:CTP-OM14112,,,
StopPoint:OM1193,La Savine Sud,1,,5.372186,43.366645,0,StopArea:CTP-OM14112,,,
StopPoint:OM1195,La Savine,1,,5.369158,43.367704,0,StopArea:CTP-OM14112,,,
StopPoint:OM1197,La Savine Sud,1,,5.371665,43.366579,0,StopArea:CTP-OM14112,,,
StopPoint:OM1198,Les Pins,1,,5.372407,43.366171,0,StopArea:CTP-OM14112,,,
StopPoint:OM1199,Le Canal,1,,5.369325,43.366393,0,StopArea:CTP-OM14112,,,
StopPoint:OM13487,Vallon des Tuves,1,,5.365352,43.367954,0,StopArea:CTP-OM14112,,,
StopPoint:OM1200,Tuves Bosphore,1,,5.363596,43.367831,0,StopArea:CTP-OM14112,,,
StopPoint:OM1171,Les Borels,1,,5.36293,43.366672,0,StopArea:CTP-OM14112,,,
StopPoint:OM1172,Résidence les Borels,1,,5.361026,43.363983,0,StopArea:CTP-OM14112,,,
StopPoint:OM1173,L'Hermitage Jean Moulin,1,,5.361572,43.362645,0,StopArea:CTP-OM14112,,,
StopPoint:OM1174,Chemin de la Mure,1,,5.36565,43.357962,0,StopArea:CTP-OM14112,,,
StopPoint:OM1175,Boulevard de la Gare,1,,5.36722,43.357109,0,StopArea:CTP-OM14112,,,
StopPoint:OM1178,H.L.M des Aygalades,1,,5.369414,43.353387,0,StopArea:CTP-OM14112,,,
StopPoint:OM1179,Aygalades Village,1,,5.365587,43.35327,0,StopArea:CTP-OM14112,,,
StopPoint:OM1180,Cité des Arts de la Rue,1,,5.36528,43.35166,0,StopArea:CTP-OM14112,,,
StopPoint:OM1181,Traverse de l'Oasis,1,,5.366391,43.348427,0,StopArea:CTP-OM14112,,,
StopPoint:OM1182,4 Chemins des Aygalades,1,,5.366067,43.346017,0,StopArea:CTP-OM14112,,,
StopPoint:OM1183,Parc Blanchard,1,,5.365524,43.343209,0,StopArea:CTP-OM14112,,,
StopPoint:OM1184,ZI de la Delorme,1,,5.36537,43.340524,0,StopArea:CTP-OM14112,,,
StopPoint:OM1185,Visitation,1,,5.367123,43.337327,0,StopArea:CTP-OM14112,,,
StopPoint:OM12888,Aygalades Corot,1,,5.3682,43.333232,0,StopArea:CTP-OM14112,,,
StopPoint:OM1188,Capitaine Gèze,1,,5.366357,43.329121,0,StopArea:CTP-OM14112,,,
StopPoint:OM199,Métro Bougainville,1,,5.371339,43.321067,0,StopArea:CTP-OM14112,,,
StopPoint:OM1100,Place Bougainville,1,,5.369126,43.319295,0,StopArea:CTP-OM14112,,,
StopPoint:OM1101,Casanova de Lesseps,1,,5.374731,43.321862,0,StopArea:CTP-OM14112,,,
StopPoint:OM1102,Casanova Barbes,1,,5.374138,43.323461,0,StopArea:CTP-OM14112,,,
StopPoint:OM1103,Casanova États Unis,1,,5.374245,43.325481,0,StopArea:CTP-OM14112,,,
StopPoint:OM1104,Place des États Unis,1,,5.375384,43.326285,0,StopArea:CTP-OM14112,,,
StopPoint:OM1105,Cimetière du Canet,1,,5.37973,43.32556,0,StopArea:CTP-OM14112,,,
StopPoint:OM1106,Moretti Gibbes,1,,5.383537,43.324184,0,StopArea:CTP-OM14112,,,
StopPoint:OM1107,Moretti Rosiers,1,,5.38607,43.323402,0,StopArea:CTP-OM14112,,,
StopPoint:OM1108,Moretti Sainte-Marthe,1,,5.388235,43.323575,0,StopArea:CTP-OM14112,,,
StopPoint:OM1138,Moretti Sainte-Marthe,1,,5.388255,43.323727,0,StopArea:CTP-OM14112,,,
StopPoint:OM1139,Moretti Rosiers,1,,5.386216,43.323596,0,StopArea:CTP-OM14112,,,
StopPoint:OM1140,Moretti Gibbes,1,,5.38373,43.324332,0,StopArea:CTP-OM14112,,,
StopPoint:OM1141,Cimetière du Canet,1,,5.380044,43.325659,0,StopArea:CTP-OM14112,,,
StopPoint:OM1142,Place des États Unis,1,,5.375731,43.32633,0,StopArea:CTP-OM14112,,,
StopPoint:OM12849,Casanova États Unis,1,,5.374025,43.325506,0,StopArea:CTP-OM14112,,,
StopPoint:OM1143,Casanova Barbes,1,,5.374262,43.323017,0,StopArea:CTP-OM14112,,,
StopPoint:OM1488,De Lesseps Casanova,1,,5.374426,43.320989,0,StopArea:CTP-OM14112,,,
StopPoint:OM1145,Métro Bougainville,1,,5.371757,43.32083,0,StopArea:CTP-OM14112,,,
StopPoint:OM12480,Métro la Rose,1,,5.42995,43.333319,0,StopArea:CTP-OM14112,,,
StopPoint:OM14064,Langevin Consolation,1,,5.432913,43.339368,0,StopArea:CTP-OM14112,,,
StopPoint:OM14065,Langevin Plank,1,,5.433107,43.341506,0,StopArea:CTP-OM14112,,,
StopPoint:OM13661,Keynes Langevin,1,,5.432446,43.342929,0,StopArea:CTP-OM14112,,,
StopPoint:OM14066,Joliot Curie,1,,5.434876,43.343205,0,StopArea:CTP-OM14112,,,
StopPoint:OM14047,Technopole Polytech Marseille,1,,5.436273,43.344549,0,StopArea:CTP-OM14112,,,
StopPoint:OM14067,Néel,1,,5.437247,43.344458,0,StopArea:CTP-OM14112,,,
StopPoint:OM14070,Leprince Ringuet,1,,5.441545,43.344129,0,StopArea:CTP-OM14112,,,
StopPoint:OM14071,Miege,1,,5.444489,43.343826,0,StopArea:CTP-OM14112,,,
StopPoint:OM12841,Collège Malraux,1,,5.44633,43.342766,0,StopArea:CTP-OM14112,,,
StopPoint:OM14072,Copernic,1,,5.449087,43.342273,0,StopArea:CTP-OM14112,,,
StopPoint:OM14073,Champollion,1,,5.449612,43.339686,0,StopArea:CTP-OM14112,,,
StopPoint:OM13642,De Roux Crémieux,1,,5.448717,43.338174,0,StopArea:CTP-OM14112,,,
StopPoint:OM13643,De Roux Garlaban,1,,5.446495,43.337636,0,StopArea:CTP-OM14112,,,
StopPoint:OM13633,Plateau de la Croix Rouge,1,,5.444383,43.337085,0,StopArea:CTP-OM14112,,,
StopPoint:OM13644,De Roux Garlaban,1,,5.446605,43.337615,0,StopArea:CTP-OM14112,,,
StopPoint:OM13645,De Roux Crémieux,1,,5.448715,43.338129,0,StopArea:CTP-OM14112,,,
StopPoint:OM14074,Champollion,1,,5.45001,43.339802,0,StopArea:CTP-OM14112,,,
StopPoint:OM12824,Copernic,1,,5.448636,43.342808,0,StopArea:CTP-OM14112,,,
StopPoint:OM14076,Collège Malraux,1,,5.446064,43.342864,0,StopArea:CTP-OM14112,,,
StopPoint:OM14077,Miege,1,,5.444506,43.343898,0,StopArea:CTP-OM14112,,,
StopPoint:OM14078,Leprince Ringuet,1,,5.441541,43.344209,0,StopArea:CTP-OM14112,,,
StopPoint:OM14079,Néel,1,,5.437285,43.344574,0,StopArea:CTP-OM14112,,,
StopPoint:OM14050,Technopole Polytech Marseille,1,,5.436314,43.34462,0,StopArea:CTP-OM14112,,,
StopPoint:OM14080,Joliot Curie,1,,5.434814,43.343449,0,StopArea:CTP-OM14112,,,
StopPoint:OM13654,Keynes Langevin,1,,5.432318,43.343148,0,StopArea:CTP-OM14112,,,
StopPoint:OM14081,Langevin Plank,1,,5.433107,43.34161,0,StopArea:CTP-OM14112,,,
StopPoint:OM12580,Langevin Consolation,1,,5.432621,43.339367,0,StopArea:CTP-OM14112,,,
StopPoint:OM14108,Hôpital Nord,1,,5.36391,43.377058,0,StopArea:CTP-OM14112,,,
StopPoint:OM1563,Bourrely Dramard,1,,5.358466,43.377858,0,StopArea:CTP-OM14112,,,
StopPoint:OM1564,Hôpital Edouard Toulouse,1,,5.358347,43.381207,0,StopArea:CTP-OM14112,,,
StopPoint:OM12957,Notre-Dame Limite,1,,5.358747,43.3846,0,StopArea:CTP-OM14112,,,
StopPoint:OM13016,Notre-Dame Fasano,1,,5.361692,43.389052,0,StopArea:CTP-OM14112,,,
StopPoint:OM13017,La Rougière,1,,5.363398,43.391164,0,StopArea:CTP-OM14112,,,
StopPoint:OM13720,Les Mazets,1,,5.364498,43.391916,0,StopArea:CTP-OM14112,,,
StopPoint:OM13019,Commissariat,1,,5.367332,43.39234,0,StopArea:CTP-OM14112,,,
StopPoint:OM12965,Vallon de la Rougière,1,,5.374733,43.391031,0,StopArea:CTP-OM14112,,,
StopPoint:OM13048,Pinède Rougière,1,,5.377335,43.389105,0,StopArea:CTP-OM14112,,,
StopPoint:OM13049,Haut de la Rougière,1,,5.376578,43.386698,0,StopArea:CTP-OM14112,,,
StopPoint:OM13050,Pinède Rougière,1,,5.377569,43.38903,0,StopArea:CTP-OM14112,,,
StopPoint:OM13052,Vallon de la Rougière,1,,5.374885,43.391144,0,StopArea:CTP-OM14112,,,
StopPoint:OM14283,Commissariat,1,,5.367496,43.392407,0,StopArea:CTP-OM14112,,,
StopPoint:OM13051,Les Mazets,1,,5.366956,43.392382,0,StopArea:CTP-OM14112,,,
StopPoint:OM13018,Septèmes Sud,1,,5.365508,43.396181,0,StopArea:CTP-OM14112,,,
StopPoint:OM13200,Septèmes Centre,1,,5.366927,43.398682,0,StopArea:CTP-OM14112,,,
StopPoint:OM14267,Septèmes Nord,1,,5.369608,43.400864,0,StopArea:CTP-OM14112,,,
StopPoint:OM12955,Les Collines,1,,5.369765,43.404605,0,StopArea:CTP-OM14112,,,
StopPoint:OM13197,Les Collines Centre,1,,5.369635,43.405602,0,StopArea:CTP-OM14112,,,
StopPoint:OM14284,Les Collines Genets,1,,5.367106,43.404856,0,StopArea:CTP-OM14112,,,
StopPoint:OM13198,Les Collines Cimetière,1,,5.369433,43.404343,0,StopArea:CTP-OM14112,,,
StopPoint:OM14324,Mediatheque,1,,5.369404,43.401203,0,StopArea:CTP-OM14112,,,
StopPoint:OM12983,Septème Gare,1,,5.369592,43.40145,0,StopArea:CTP-OM14112,,,
StopPoint:OM12984,Collège Ferrandi,1,,5.370958,43.407481,0,StopArea:CTP-OM14112,,,
StopPoint:OM12959,Les Peyrets Fabregoules,1,,5.372445,43.410424,0,StopArea:CTP-OM14112,,,
StopPoint:OM14147,Mandela Creche,1,,5.370812,43.410318,0,StopArea:CTP-OM14112,,,
StopPoint:OM12985,Mandela l'Arlesienne,1,,5.36888,43.409837,0,StopArea:CTP-OM14112,,,
StopPoint:OM14268,Mandela École,1,,5.366787,43.408624,0,StopArea:CTP-OM14112,,,
StopPoint:OM12981,La Grande Vigne,1,,5.364004,43.405389,0,StopArea:CTP-OM14112,,,
StopPoint:OM12982,Polysport Grand Pavois,1,,5.363912,43.403377,0,StopArea:CTP-OM14112,,,
StopPoint:OM13153,Lou Galoubet,1,,5.365638,43.400137,0,StopArea:CTP-OM14112,,,
StopPoint:OM12951,Les Genets,1,,5.371927,43.405156,0,StopArea:CTP-OM14112,,,
StopPoint:OM13006,Polysport Grand Pavois,1,,5.364149,43.403329,0,StopArea:CTP-OM14112,,,
StopPoint:OM13007,La Grande Vigne,1,,5.364296,43.405309,0,StopArea:CTP-OM14112,,,
StopPoint:OM12986,Place Barbusse,1,,5.363113,43.407018,0,StopArea:CTP-OM14112,,,
StopPoint:OM12987,Grand Pavois,1,,5.358899,43.403971,0,StopArea:CTP-OM14112,,,
StopPoint:OM12988,ZA de la Haute Bedoule,1,,5.356412,43.403213,0,StopArea:CTP-OM14112,,,
StopPoint:OM12989,École Castors Isabella,1,,5.353716,43.402614,0,StopArea:CTP-OM14112,,,
StopPoint:OM14269,Castors Isabella Sud,1,,5.351284,43.403744,0,StopArea:CTP-OM14112,,,
StopPoint:OM14270,Castors Isabella,1,,5.348462,43.405666,0,StopArea:CTP-OM14112,,,
StopPoint:OM12991,Vallon de la Gazelle,1,,5.346304,43.407093,0,StopArea:CTP-OM14112,,,
StopPoint:OM12992,Chêne Vert,1,,5.354544,43.407555,0,StopArea:CTP-OM14112,,,
StopPoint:OM12993,Cimetière Nord,1,,5.355241,43.405575,0,StopArea:CTP-OM14112,,,
StopPoint:OM12994,Cimetière Sud,1,,5.356299,43.404341,0,StopArea:CTP-OM14112,,,
StopPoint:OM12995,Bedoule Sauze,1,,5.357097,43.402646,0,StopArea:CTP-OM14112,,,
StopPoint:OM13045,Eugène Michel,1,,5.355222,43.399541,0,StopArea:CTP-OM14112,,,
StopPoint:OM13046,Transformateur,1,,5.35194,43.395587,0,StopArea:CTP-OM14112,,,
StopPoint:OM13047,Les Tourelles,1,,5.351664,43.393391,0,StopArea:CTP-OM14112,,,
StopPoint:OM12950,La Gavotte Peyret,1,,5.352011,43.389662,0,StopArea:CTP-OM14112,,,
StopPoint:OM13151,Langevin Wallon,1,,5.351945,43.386539,0,StopArea:CTP-OM14112,,,
StopPoint:OM12996,Traverse des Fraises,1,,5.350444,43.383021,0,StopArea:CTP-OM14112,,,
StopPoint:OM14271,L'Oliveraie,1,,5.354205,43.38028,0,StopArea:CTP-OM14112,,,
StopPoint:OM13982,Les Fabrettes,1,,5.35734,43.379657,0,StopArea:CTP-OM14112,,,
StopPoint:OM13989,Hôpital Nord,1,,5.362726,43.377271,0,StopArea:CTP-OM14112,,,
StopPoint:OM14144,Pont du Canal,1,,5.372459,43.371799,0,StopArea:CTP-OM14112,,,
StopPoint:OM12967,Les Peyrards Placette,1,,5.377068,43.37131,0,StopArea:CTP-OM14112,,,
StopPoint:OM12997,Les Peyrards Corradi,1,,5.38196,43.373591,0,StopArea:CTP-OM14112,,,
StopPoint:OM12998,Les Peyrards Chasseurs,1,,5.380284,43.371983,0,StopArea:CTP-OM14112,,,
StopPoint:OM12999,Les Peyrards Placette,1,,5.376979,43.371258,0,StopArea:CTP-OM14112,,,
StopPoint:OM14145,Pont du Canal,1,,5.372305,43.371912,0,StopArea:CTP-OM14112,,,
StopPoint:OM12405,Métro la Timone,1,,5.400544,43.291373,0,StopArea:CTP-OM14112,,,
StopPoint:OM11231,C.H.U Timone,1,,5.402474,43.291777,0,StopArea:CTP-OM14112,,,
StopPoint:OM11232,Saint-Pierre Godchot,1,,5.406859,43.291589,0,StopArea:CTP-OM14112,,,
StopPoint:OM11233,Saint-Pierre Sainte-Therese,1,,5.410239,43.291484,0,StopArea:CTP-OM14112,,,
StopPoint:OM13091,Saint-Pierre,1,,5.413385,43.291627,0,StopArea:CTP-OM14112,,,
StopPoint:OM11158,Saint-Pierre Petite Porte,1,,5.419968,43.290414,0,StopArea:CTP-OM14112,,,
StopPoint:OM11159,Saint-Pierre Jeannette,1,,5.422792,43.290513,0,StopArea:CTP-OM14112,,,
StopPoint:OM11160,Lombard Parette,1,,5.427087,43.289346,0,StopArea:CTP-OM14112,,,
StopPoint:OM11161,Lombard Bezombes,1,,5.429915,43.288824,0,StopArea:CTP-OM14112,,,
StopPoint:OM11162,Lombard Rebattu,1,,5.43291,43.288882,0,StopArea:CTP-OM14112,,,
StopPoint:OM11163,Lombard Mireille Lauze,1,,5.437015,43.289213,0,StopArea:CTP-OM14112,,,
StopPoint:OM11164,Allard Mireille Lauze,1,,5.438643,43.289274,0,StopArea:CTP-OM14112,,,
StopPoint:OM11165,La Pomme Église,1,,5.442041,43.290201,0,StopArea:CTP-OM14112,,,
StopPoint:OM11166,La Pomme Campanules,1,,5.443784,43.291248,0,StopArea:CTP-OM14112,,,
StopPoint:OM11167,Follereau la Pomme,1,,5.445751,43.293008,0,StopArea:CTP-OM14112,,,
StopPoint:OM11168,Les Caillols (Centre Urbain),1,,5.445142,43.294725,0,StopArea:CTP-OM14112,,,
StopPoint:OM1929,Booth Lecache,1,,5.446974,43.295814,0,StopArea:CTP-OM14112,,,
StopPoint:OM12624,Lecache les Comtes,1,,5.448706,43.295278,0,StopArea:CTP-OM14112,,,
StopPoint:OM11169,Clairval les Comtes,1,,5.451055,43.293421,0,StopArea:CTP-OM14112,,,
StopPoint:OM11170,H.L.M Rouguière,1,,5.454724,43.293207,0,StopArea:CTP-OM14112,,,
StopPoint:OM11171,La Rouguière,1,,5.459496,43.29198,0,StopArea:CTP-OM14112,,,
StopPoint:OM11172,Cartonnerie,1,,5.46366,43.290007,0,StopArea:CTP-OM14112,,,
StopPoint:OM11173,Petit Saint-Marcel,1,,5.465996,43.289264,0,StopArea:CTP-OM14112,,,
StopPoint:OM1641,La Sablière la Montre,1,,5.473723,43.290559,0,StopArea:CTP-OM14112,,,
StopPoint:OM1642,La Sablière Saint-Menet,1,,5.479152,43.291677,0,StopArea:CTP-OM14112,,,
StopPoint:OM1643,La Sablière la Ravelle,1,,5.480657,43.293981,0,StopArea:CTP-OM14112,,,
StopPoint:OM1644,La Valentine,1,,5.483523,43.296622,0,StopArea:CTP-OM14112,,,
StopPoint:OM11174,L'Audience,1,,5.486848,43.295967,0,StopArea:CTP-OM14112,,,
StopPoint:OM11175,Collège Le Ruissatel,1,,5.489336,43.295759,0,StopArea:CTP-OM14112,,,
StopPoint:OM12811,Camoins Visitation,1,,5.492464,43.296674,0,StopArea:CTP-OM14112,,,
StopPoint:OM11176,Les Accates,1,,5.497127,43.2975,0,StopArea:CTP-OM14112,,,
StopPoint:OM11177,Les Quatre Saisons,1,,5.501873,43.299626,0,StopArea:CTP-OM14112,,,
StopPoint:OM11178,Camoins les Bains,1,,5.503923,43.301068,0,StopArea:CTP-OM14112,,,
StopPoint:OM11179,Camoins les Clos,1,,5.507176,43.301107,0,StopArea:CTP-OM14112,,,
StopPoint:OM11214,Les Camoins,1,,5.508961,43.301288,0,StopArea:CTP-OM14112,,,
StopPoint:OM11180,Camoins Montée d'Eoures,1,,5.510565,43.300935,0,StopArea:CTP-OM14112,,,
StopPoint:OM11181,Eoures Saint-Roch,1,,5.514171,43.300235,0,StopArea:CTP-OM14112,,,
StopPoint:OM11182,Eoures Notre-Dame,1,,5.518513,43.300386,0,StopArea:CTP-OM14112,,,
StopPoint:OM11183,Eoures Village,1,,5.520821,43.301145,0,StopArea:CTP-OM14112,,,
StopPoint:OM11184,Eoures Cigales,1,,5.523135,43.30113,0,StopArea:CTP-OM14112,,,
StopPoint:OM11185,Eoures,1,,5.526125,43.301311,0,StopArea:CTP-OM14112,,,
StopPoint:OM11186,Eoures Cigales,1,,5.523094,43.301284,0,StopArea:CTP-OM14112,,,
StopPoint:OM11187,Eoures Village,1,,5.520347,43.301258,0,StopArea:CTP-OM14112,,,
StopPoint:OM11188,Eoures Notre-Dame,1,,5.518311,43.300518,0,StopArea:CTP-OM14112,,,
StopPoint:OM11189,Eoures Saint-Roch,1,,5.51412,43.300435,0,StopArea:CTP-OM14112,,,
StopPoint:OM13167,Place du Monument,1,,5.510587,43.301176,0,StopArea:CTP-OM14112,,,
StopPoint:OM11191,Camoins les Clos,1,,5.50695,43.301258,0,StopArea:CTP-OM14112,,,
StopPoint:OM11192,Camoins les Bains,1,,5.503615,43.301059,0,StopArea:CTP-OM14112,,,
StopPoint:OM11193,Les Quatre Saisons,1,,5.501836,43.299843,0,StopArea:CTP-OM14112,,,
StopPoint:OM11194,Les Accates,1,,5.49644,43.297556,0,StopArea:CTP-OM14112,,,
StopPoint:OM12812,Camoins Visitation,1,,5.492286,43.297012,0,StopArea:CTP-OM14112,,,
StopPoint:OM11195,Collège Le Ruissatel,1,,5.488335,43.295689,0,StopArea:CTP-OM14112,,,
StopPoint:OM11196,L'Audience,1,,5.486422,43.296276,0,StopArea:CTP-OM14112,,,
StopPoint:OM1634,La Valentine,1,,5.482873,43.296452,0,StopArea:CTP-OM14112,,,
StopPoint:OM1635,La Sablière la Ravelle,1,,5.478954,43.292097,0,StopArea:CTP-OM14112,,,
StopPoint:OM1636,La Sablière,1,,5.477635,43.290733,0,StopArea:CTP-OM14112,,,
StopPoint:OM1637,La Sablière la Montre,1,,5.474466,43.290636,0,StopArea:CTP-OM14112,,,
StopPoint:OM11197,La Montre,1,,5.472325,43.29087,0,StopArea:CTP-OM14112,,,
StopPoint:OM11198,Petit Saint-Marcel,1,,5.466295,43.289346,0,StopArea:CTP-OM14112,,,
StopPoint:OM11199,Cartonnerie,1,,5.462818,43.290814,0,StopArea:CTP-OM14112,,,
StopPoint:OM11200,La Rouguière,1,,5.459038,43.292398,0,StopArea:CTP-OM14112,,,
StopPoint:OM11201,H.L.M Rouguière,1,,5.454967,43.293371,0,StopArea:CTP-OM14112,,,
StopPoint:OM11202,Clairval les Comtes,1,,5.451401,43.293681,0,StopArea:CTP-OM14112,,,
StopPoint:OM12625,Lecache les Comtes,1,,5.449112,43.295276,0,StopArea:CTP-OM14112,,,
StopPoint:OM1926,Booth Lecache,1,,5.447097,43.296035,0,StopArea:CTP-OM14112,,,
StopPoint:OM11203,Les Caillols (Centre Urbain),1,,5.444994,43.294945,0,StopArea:CTP-OM14112,,,
StopPoint:OM11204,Follereau la Pomme,1,,5.445471,43.292836,0,StopArea:CTP-OM14112,,,
StopPoint:OM11205,La Pomme Campanules,1,,5.442192,43.291159,0,StopArea:CTP-OM14112,,,
StopPoint:OM11206,Gare de la Pomme,1,,5.439889,43.290695,0,StopArea:CTP-OM14112,,,
StopPoint:OM11207,Lombard Mireille Lauze,1,,5.436173,43.289363,0,StopArea:CTP-OM14112,,,
StopPoint:OM11208,Lombard Rebattu,1,,5.43319,43.289063,0,StopArea:CTP-OM14112,,,
StopPoint:OM11209,Lombard Bezombes,1,,5.429766,43.289017,0,StopArea:CTP-OM14112,,,
StopPoint:OM11210,Lombard Parette,1,,5.426105,43.290085,0,StopArea:CTP-OM14112,,,
StopPoint:OM11211,Saint-Pierre Jeannette,1,,5.42221,43.290673,0,StopArea:CTP-OM14112,,,
StopPoint:OM11212,Saint-Pierre Petite Porte,1,,5.420174,43.290588,0,StopArea:CTP-OM14112,,,
StopPoint:OM13092,Saint-Pierre,1,,5.413194,43.291813,0,StopArea:CTP-OM14112,,,
StopPoint:OM11250,Saint-Pierre Sainte-Therese,1,,5.409561,43.29171,0,StopArea:CTP-OM14112,,,
StopPoint:OM11251,Saint-Pierre Godchot,1,,5.405654,43.291623,0,StopArea:CTP-OM14112,,,
StopPoint:OM11252,C.H.U Timone,1,,5.401994,43.29224,0,StopArea:CTP-OM14112,,,
StopPoint:OM12408,Métro la Timone,1,,5.399517,43.290575,0,StopArea:CTP-OM14112,,,
StopPoint:OM14010,Les Fabrettes,1,,5.357049,43.379499,0,StopArea:CTP-OM14112,,,
StopPoint:OM14272,L'Oliveraie,1,,5.354633,43.37998,0,StopArea:CTP-OM14112,,,
StopPoint:OM13000,Traverse des Fraises,1,,5.350591,43.38299,0,StopArea:CTP-OM14112,,,
StopPoint:OM14273,Langevin Wallon,1,,5.352292,43.386107,0,StopArea:CTP-OM14112,,,
StopPoint:OM12963,La Gavotte Peyret,1,,5.352362,43.389642,0,StopArea:CTP-OM14112,,,
StopPoint:OM13042,Les Tourelles,1,,5.351806,43.393279,0,StopArea:CTP-OM14112,,,
StopPoint:OM13043,Transformateur,1,,5.352435,43.396085,0,StopArea:CTP-OM14112,,,
StopPoint:OM13044,Eugène Michel,1,,5.355562,43.39943,0,StopArea:CTP-OM14112,,,
StopPoint:OM14274,Bedoule Sauze,1,,5.357319,43.402639,0,StopArea:CTP-OM14112,,,
StopPoint:OM14275,Cimetière Sud,1,,5.356467,43.404264,0,StopArea:CTP-OM14112,,,
StopPoint:OM14276,Cimetière Nord,1,,5.355305,43.405619,0,StopArea:CTP-OM14112,,,
StopPoint:OM14277,Chêne Vert,1,,5.354838,43.407295,0,StopArea:CTP-OM14112,,,
StopPoint:OM14278,Vallon de la Gazelle,1,,5.346379,43.406875,0,StopArea:CTP-OM14112,,,
StopPoint:OM14279,Castors Isabella,1,,5.347854,43.405602,0,StopArea:CTP-OM14112,,,
StopPoint:OM12990,Castors Isabella Sud,1,,5.351196,43.403719,0,StopArea:CTP-OM14112,,,
StopPoint:OM12961,École Castors Isabella,1,,5.353568,43.402618,0,StopArea:CTP-OM14112,,,
StopPoint:OM14280,ZA de la Haute Bedoule,1,,5.356431,43.403105,0,StopArea:CTP-OM14112,,,
StopPoint:OM13001,Grand Pavois,1,,5.359098,43.403729,0,StopArea:CTP-OM14112,,,
StopPoint:OM13002,Place Barbusse,1,,5.364597,43.407336,0,StopArea:CTP-OM14112,,,
StopPoint:OM13003,Mandela École,1,,5.367832,43.409017,0,StopArea:CTP-OM14112,,,
StopPoint:OM14146,Mandela Creche,1,,5.370929,43.410207,0,StopArea:CTP-OM14112,,,
StopPoint:OM12954,Les Peyrets Fabregoules,1,,5.372024,43.410456,0,StopArea:CTP-OM14112,,,
StopPoint:OM13004,Collège Ferrandi,1,,5.371017,43.406742,0,StopArea:CTP-OM14112,,,
StopPoint:OM13005,Septème Gare,1,,5.369871,43.401392,0,StopArea:CTP-OM14112,,,
StopPoint:OM14281,Septèmes Nord,1,,5.369486,43.400877,0,StopArea:CTP-OM14112,,,
StopPoint:OM13199,Septèmes Centre,1,,5.366317,43.398565,0,StopArea:CTP-OM14112,,,
StopPoint:OM13013,Septèmes Sud,1,,5.365962,43.39624,0,StopArea:CTP-OM14112,,,
StopPoint:OM13014,La Rougière,1,,5.362968,43.390736,0,StopArea:CTP-OM14112,,,
StopPoint:OM13015,Notre-Dame Fasano,1,,5.361517,43.389211,0,StopArea:CTP-OM14112,,,
StopPoint:OM12956,Notre-Dame Limite,1,,5.358465,43.384598,0,StopArea:CTP-OM14112,,,
StopPoint:OM14282,Hôpital Edouard Toulouse,1,,5.358348,43.38216,0,StopArea:CTP-OM14112,,,
StopPoint:OM11215,La Treille Campagne,1,,5.505948,43.303841,0,StopArea:CTP-OM14112,,,
StopPoint:OM11216,La Treille Thermal,1,,5.506517,43.305668,0,StopArea:CTP-OM14112,,,
StopPoint:OM11217,La Treille Camoins,1,,5.508393,43.307303,0,StopArea:CTP-OM14112,,,
StopPoint:OM11218,La Treille Pluvence,1,,5.509866,43.308114,0,StopArea:CTP-OM14112,,,
StopPoint:OM11219,La Treille,1,,5.512487,43.311418,0,StopArea:CTP-OM14112,,,
StopPoint:OM12139,La Treille,1,,5.512508,43.311571,0,StopArea:CTP-OM14112,,,
StopPoint:OM11220,La Treille Pluvence,1,,5.509573,43.308159,0,StopArea:CTP-OM14112,,,
StopPoint:OM11221,La Treille Camoins,1,,5.508115,43.30741,0,StopArea:CTP-OM14112,,,
StopPoint:OM11222,La Treille Thermal,1,,5.506374,43.305978,0,StopArea:CTP-OM14112,,,
StopPoint:OM11223,La Treille Campagne,1,,5.505928,43.304372,0,StopArea:CTP-OM14112,,,
StopPoint:OM11633,Saint-Loup Pagnol,1,,5.432819,43.283093,0,StopArea:CTP-OM14112,,,
StopPoint:OM1728,Métro la Rose,1,,5.429571,43.333159,0,StopArea:CTP-OM14112,,,
StopPoint:OM13937,Les Vieux Cyprès,1,,5.434654,43.336634,0,StopArea:CTP-OM14112,,,
StopPoint:OM13938,Einstein Monnet,1,,5.440063,43.338981,0,StopArea:CTP-OM14112,,,
StopPoint:OM13939,Einstein Athéna,1,,5.443231,43.341039,0,StopArea:CTP-OM14112,,,
StopPoint:OM13940,Collège Malraux,1,,5.445016,43.342431,0,StopArea:CTP-OM14112,,,
StopPoint:OM13941,Einstein Parking Relais,1,,5.448375,43.3455,0,StopArea:CTP-OM14112,,,
StopPoint:OM1724,Bara Bessons,1,,5.448644,43.347727,0,StopArea:CTP-OM14112,,,
StopPoint:OM13874,Bara Val de Gray,1,,5.445187,43.348968,0,StopArea:CTP-OM14112,,,
StopPoint:OM1725,Bara la Croix,1,,5.444588,43.349274,0,StopArea:CTP-OM14112,,,
StopPoint:OM1726,Bara Prats,1,,5.442068,43.350983,0,StopArea:CTP-OM14112,,,
StopPoint:OM1727,Place des Héros,1,,5.440473,43.351587,0,StopArea:CTP-OM14112,,,
StopPoint:OM1680,Palama Château Gombert,1,,5.43783,43.352382,0,StopArea:CTP-OM14112,,,
StopPoint:OM1681,Château Gombert,1,,5.438251,43.353333,0,StopArea:CTP-OM14112,,,
StopPoint:OM14160,Château Gombert,1,,5.438062,43.353248,0,StopArea:CTP-OM14112,,,
StopPoint:OM1718,Palama Château Gombert,1,,5.437605,43.352326,0,StopArea:CTP-OM14112,,,
StopPoint:OM1717,Place des Héros,1,,5.439435,43.351761,0,StopArea:CTP-OM14112,,,
StopPoint:OM1720,Bara Prats,1,,5.440802,43.351281,0,StopArea:CTP-OM14112,,,
StopPoint:OM1721,Bara la Croix,1,,5.443113,43.350261,0,StopArea:CTP-OM14112,,,
StopPoint:OM13875,Bara Val de Gray,1,,5.445114,43.348837,0,StopArea:CTP-OM14112,,,
StopPoint:OM1722,Bara Bessons,1,,5.446877,43.348084,0,StopArea:CTP-OM14112,,,
StopPoint:OM13942,Einstein Parking Relais,1,,5.448303,43.345524,0,StopArea:CTP-OM14112,,,
StopPoint:OM13943,Collège Malraux,1,,5.44497,43.342464,0,StopArea:CTP-OM14112,,,
StopPoint:OM13944,Einstein Athéna,1,,5.443134,43.341096,0,StopArea:CTP-OM14112,,,
StopPoint:OM13945,Einstein Monnet,1,,5.440054,43.339045,0,StopArea:CTP-OM14112,,,
StopPoint:OM13946,Les Vieux Cyprès,1,,5.434543,43.336688,0,StopArea:CTP-OM14112,,,
StopPoint:OM13558,Métro Fourragère,1,,5.423375,43.303962,0,StopArea:CTP-OM14112,,,
StopPoint:OM1915,Caillols la Fourragère,1,,5.427643,43.303772,0,StopArea:CTP-OM14112,,,
StopPoint:OM1952,Les Borromées,1,,5.430836,43.300884,0,StopArea:CTP-OM14112,,,
StopPoint:OM1953,Résidence Valvert,1,,5.430118,43.299672,0,StopArea:CTP-OM14112,,,
StopPoint:OM1954,Le Vendôme,1,,5.431282,43.298416,0,StopArea:CTP-OM14112,,,
StopPoint:OM1955,Fourragère Désert,1,,5.433932,43.297341,0,StopArea:CTP-OM14112,,,
StopPoint:OM12901,Désert Gazelles,1,,5.434999,43.297378,0,StopArea:CTP-OM14112,,,
StopPoint:OM1957,Bellevue,1,,5.436389,43.298377,0,StopArea:CTP-OM14112,,,
StopPoint:OM1958,Centre Social,1,,5.438044,43.297781,0,StopArea:CTP-OM14112,,,
StopPoint:OM1959,Bastide Basse,1,,5.439698,43.299226,0,StopArea:CTP-OM14112,,,
StopPoint:OM1960,Bastide Cazaulx,1,,5.44049,43.297719,0,StopArea:CTP-OM14112,,,
StopPoint:OM1961,Mairie 11-12,1,,5.442714,43.29672,0,StopArea:CTP-OM14112,,,
StopPoint:OM13181,Les Caillols (Centre Urbain),1,,5.444415,43.294911,0,StopArea:CTP-OM14112,,,
StopPoint:OM1930,Booth la Moularde,1,,5.448611,43.296711,0,StopArea:CTP-OM14112,,,
StopPoint:OM11238,Les Cigalons,1,,5.45212,43.29875,0,StopArea:CTP-OM14112,,,
StopPoint:OM11239,Collet des Comtes,1,,5.455075,43.299213,0,StopArea:CTP-OM14112,,,
StopPoint:OM11240,Les Libérateurs,1,,5.457904,43.299607,0,StopArea:CTP-OM14112,,,
StopPoint:OM11241,La Rouguière,1,,5.459302,43.297696,0,StopArea:CTP-OM14112,,,
StopPoint:OM11242,Les Caillols Hôpital,1,,5.459976,43.297866,0,StopArea:CTP-OM14112,,,
StopPoint:OM11243,Les Libérateurs,1,,5.457803,43.29979,0,StopArea:CTP-OM14112,,,
StopPoint:OM11244,Collet des Comtes,1,,5.454896,43.299308,0,StopArea:CTP-OM14112,,,
StopPoint:OM11245,Les Cigalons,1,,5.451894,43.2989,0,StopArea:CTP-OM14112,,,
StopPoint:OM1925,Booth la Moularde,1,,5.448549,43.296929,0,StopArea:CTP-OM14112,,,
StopPoint:OM1962,Mairie 11-12,1,,5.442587,43.296876,0,StopArea:CTP-OM14112,,,
StopPoint:OM1963,Bastide Cazaulx,1,,5.440263,43.298301,0,StopArea:CTP-OM14112,,,
StopPoint:OM1964,Bastide Basse,1,,5.439956,43.299452,0,StopArea:CTP-OM14112,,,
StopPoint:OM1965,Centre Social,1,,5.437677,43.297593,0,StopArea:CTP-OM14112,,,
StopPoint:OM1966,Bellevue,1,,5.436019,43.298369,0,StopArea:CTP-OM14112,,,
StopPoint:OM1968,La Fourragère Désert,1,,5.434167,43.297578,0,StopArea:CTP-OM14112,,,
StopPoint:OM1969,Le Vendôme,1,,5.431391,43.298611,0,StopArea:CTP-OM14112,,,
StopPoint:OM1970,Résidence Valvert,1,,5.430494,43.299572,0,StopArea:CTP-OM14112,,,
StopPoint:OM1971,Les Borromées,1,,5.431182,43.301126,0,StopArea:CTP-OM14112,,,
StopPoint:OM1940,Caillols la Fourragère,1,,5.427802,43.303992,0,StopArea:CTP-OM14112,,,
StopPoint:OM1941,Métro Fourragère,1,,5.423628,43.304211,0,StopArea:CTP-OM14112,,,
StopPoint:OM1942,Gasquy Vian,1,,5.422625,43.301362,0,StopArea:CTP-OM14112,,,
StopPoint:OM1943,Bastide Saint-Jean,1,,5.421596,43.298946,0,StopArea:CTP-OM14112,,,
StopPoint:OM1944,Garlaban Cauvin,1,,5.417938,43.298233,0,StopArea:CTP-OM14112,,,
StopPoint:OM1945,Haiti Hespérides,1,,5.41592,43.298263,0,StopArea:CTP-OM14112,,,
StopPoint:OM1946,Collège Darius Milhaud,1,,5.41384,43.298044,0,StopArea:CTP-OM14112,,,
StopPoint:OM1947,Métro Louis Armand,1,,5.413394,43.298902,0,StopArea:CTP-OM14112,,,
StopPoint:OM1948,Haguenau Merle,1,,5.413203,43.301318,0,StopArea:CTP-OM14112,,,
StopPoint:OM1949,Haguenau Alaska,1,,5.413172,43.303495,0,StopArea:CTP-OM14112,,,
StopPoint:OM1871,Saint-Barnabé la Croix,1,,5.415041,43.304125,0,StopArea:CTP-OM14112,,,
StopPoint:OM1872,Saint-Barnabé Cauvin,1,,5.417805,43.303785,0,StopArea:CTP-OM14112,,,
StopPoint:OM13762,Métro Saint-Barnabé,1,,5.419331,43.303674,0,StopArea:CTP-OM14112,,,
StopPoint:OM12532,Castellane,1,,5.384578,43.285344,0,StopArea:CTP-OM14112,,,
StopPoint:OM12533,Delphes,1,,5.388043,43.284067,0,StopArea:CTP-OM14112,,,
StopPoint:OM12675,Delphes Toulon,1,,5.388408,43.28492,0,StopArea:CTP-OM14112,,,
StopPoint:OM11263,Toulon Isly,1,,5.392368,43.284628,0,StopArea:CTP-OM14112,,,
StopPoint:OM11264,Toulon Hébert,1,,5.395433,43.284388,0,StopArea:CTP-OM14112,,,
StopPoint:OM11265,Toulon Galinat,1,,5.397332,43.283309,0,StopArea:CTP-OM14112,,,
StopPoint:OM11266,Capelette Rabatau,1,,5.400042,43.283573,0,StopArea:CTP-OM14112,,,
StopPoint:OM11267,Capelette la Poste,1,,5.402377,43.28259,0,StopArea:CTP-OM14112,,,
StopPoint:OM11268,Delessert,1,,5.405247,43.28124,0,StopArea:CTP-OM14112,,,
StopPoint:OM11269,Capelette Curtel,1,,5.408698,43.280188,0,StopArea:CTP-OM14112,,,
StopPoint:OM11270,Fifi Turin,1,,5.412527,43.279062,0,StopArea:CTP-OM14112,,,
StopPoint:OM11271,Pont de Vivaux Hippodrome,1,,5.415515,43.279454,0,StopArea:CTP-OM14112,,,
StopPoint:OM11272,Pont de Vivaux,1,,5.417882,43.279539,0,StopArea:CTP-OM14112,,,
StopPoint:OM11273,Pont de Vivaux Frênes,1,,5.421825,43.280757,0,StopArea:CTP-OM14112,,,
StopPoint:OM14236,Pont de Vivaux Sidolle,1,,5.424133,43.281563,0,StopArea:CTP-OM14112,,,
StopPoint:OM11274,Saint-Loup Florian,1,,5.427283,43.281553,0,StopArea:CTP-OM14112,,,
StopPoint:OM11275,Saint-Loup Église,1,,5.4306,43.282339,0,StopArea:CTP-OM14112,,,
StopPoint:OM11276,Saint-Loup Queirel,1,,5.433332,43.2828,0,StopArea:CTP-OM14112,,,
StopPoint:OM11277,Résidence Lycée Est,1,,5.437105,43.281315,0,StopArea:CTP-OM14112,,,
StopPoint:OM11278,Saint-Thys,1,,5.439207,43.281039,0,StopArea:CTP-OM14112,,,
StopPoint:OM11279,Parc Saint-Cyr,1,,5.441832,43.281098,0,StopArea:CTP-OM14112,,,
StopPoint:OM11281,Château Saint-Cyr,1,,5.442797,43.284379,0,StopArea:CTP-OM14112,,,
StopPoint:OM11282,Valbarelle Heckel,1,,5.443215,43.28595,0,StopArea:CTP-OM14112,,,
StopPoint:OM13130,Valbarelle Saint-Jacques,1,,5.44675,43.28717,0,StopArea:CTP-OM14112,,,
StopPoint:OM11283,Stade Coder,1,,5.448181,43.287416,0,StopArea:CTP-OM14112,,,
StopPoint:OM11284,Valbarelle Andreu,1,,5.450865,43.288112,0,StopArea:CTP-OM14112,,,
StopPoint:OM11285,Valbarelle Lanfranchi,1,,5.455011,43.288513,0,StopArea:CTP-OM14112,,,
StopPoint:OM11286,Granière Rente,1,,5.458894,43.287258,0,StopArea:CTP-OM14112,,,
StopPoint:OM11287,La Granière,1,,5.460812,43.286088,0,StopArea:CTP-OM14112,,,
StopPoint:OM11288,Les Néréides,1,,5.459717,43.285184,0,StopArea:CTP-OM14112,,,
StopPoint:OM11289,Le Bosquet,1,,5.457347,43.285055,0,StopArea:CTP-OM14112,,,
StopPoint:OM11290,Le Bosquet,1,,5.457658,43.284893,0,StopArea:CTP-OM14112,,,
StopPoint:OM11291,Les Néréides,1,,5.459389,43.285032,0,StopArea:CTP-OM14112,,,
StopPoint:OM11292,La Granière,1,,5.461188,43.286203,0,StopArea:CTP-OM14112,,,
StopPoint:OM11293,Granière Rente,1,,5.458591,43.287564,0,StopArea:CTP-OM14112,,,
StopPoint:OM11294,Valbarelle Lanfranchi,1,,5.454245,43.288688,0,StopArea:CTP-OM14112,,,
StopPoint:OM11295,Valbarelle Andreu,1,,5.450118,43.288178,0,StopArea:CTP-OM14112,,,
StopPoint:OM11296,Stade Coder,1,,5.446653,43.287388,0,StopArea:CTP-OM14112,,,
StopPoint:OM11297,Valbarelle Heckel,1,,5.443015,43.286127,0,StopArea:CTP-OM14112,,,
StopPoint:OM11299,Château Saint-Cyr,1,,5.442822,43.283479,0,StopArea:CTP-OM14112,,,
StopPoint:OM11301,Parc Saint-Cyr,1,,5.442187,43.28151,0,StopArea:CTP-OM14112,,,
StopPoint:OM11302,Saint-Thys,1,,5.439389,43.281222,0,StopArea:CTP-OM14112,,,
StopPoint:OM11303,Résidence Lycée Est,1,,5.437151,43.281476,0,StopArea:CTP-OM14112,,,
StopPoint:OM11304,Saint-Loup Queirel,1,,5.433585,43.282927,0,StopArea:CTP-OM14112,,,
StopPoint:OM11305,Saint-Loup Église,1,,5.431144,43.28262,0,StopArea:CTP-OM14112,,,
StopPoint:OM11306,Saint-Loup Florian,1,,5.426342,43.28167,0,StopArea:CTP-OM14112,,,
StopPoint:OM14237,Pont de Vivaux Sidolle,1,,5.423766,43.281618,0,StopArea:CTP-OM14112,,,
StopPoint:OM11307,Pont de Vivaux Frênes,1,,5.420974,43.280727,0,StopArea:CTP-OM14112,,,
StopPoint:OM11308,Pont de Vivaux,1,,5.418032,43.279804,0,StopArea:CTP-OM14112,,,
StopPoint:OM11309,Pont de Vivaux Hippodrome,1,,5.415529,43.279732,0,StopArea:CTP-OM14112,,,
StopPoint:OM11310,Fifi Turin,1,,5.412819,43.279225,0,StopArea:CTP-OM14112,,,
StopPoint:OM11311,Capelette Curtel,1,,5.407982,43.280604,0,StopArea:CTP-OM14112,,,
StopPoint:OM11312,Delessert,1,,5.405077,43.281523,0,StopArea:CTP-OM14112,,,
StopPoint:OM11313,Capelette la Poste,1,,5.402868,43.282558,0,StopArea:CTP-OM14112,,,
StopPoint:OM11314,Capelette Rabatau,1,,5.399827,43.283705,0,StopArea:CTP-OM14112,,,
StopPoint:OM11315,Toulon Galinat,1,,5.397652,43.283534,0,StopArea:CTP-OM14112,,,
StopPoint:OM11316,Toulon Hébert,1,,5.395469,43.284612,0,StopArea:CTP-OM14112,,,
StopPoint:OM11317,Toulon Isly,1,,5.392515,43.28484,0,StopArea:CTP-OM14112,,,
StopPoint:OM11318,Toulon Delphes,1,,5.388846,43.285285,0,StopArea:CTP-OM14112,,,
StopPoint:OM1411,Cantini Delphes,1,,5.386972,43.284314,0,StopArea:CTP-OM14112,,,
StopPoint:OM12379,Castellane,1,,5.38435,43.285683,0,StopArea:CTP-OM14112,,,
StopPoint:OM11641,Métro Sainte-Marguerite Dromel,1,,5.403695,43.271321,0,StopArea:CTP-OM14112,,,
StopPoint:OM11620,Trinitaires Huveaune,1,,5.406416,43.272025,0,StopArea:CTP-OM14112,,,
StopPoint:OM11642,Belle Ombre Romain Rolland,1,,5.407732,43.27018,0,StopArea:CTP-OM14112,,,
StopPoint:OM11643,Claudel Collège Pasteur,1,,5.409579,43.268365,0,StopArea:CTP-OM14112,,,
StopPoint:OM11644,Saint-Tronc Parc Fleuri,1,,5.412187,43.268111,0,StopArea:CTP-OM14112,,,
StopPoint:OM11645,Claudel Mairie 9-10,1,,5.413829,43.268216,0,StopArea:CTP-OM14112,,,
StopPoint:OM11646,Vallon de Toulouse,1,,5.417471,43.267986,0,StopArea:CTP-OM14112,,,
StopPoint:OM11673,Toulouse Claudel,1,,5.420981,43.26758,0,StopArea:CTP-OM14112,,,
StopPoint:OM11674,Toulouse Val des Bois,1,,5.423498,43.267004,0,StopArea:CTP-OM14112,,,
StopPoint:OM11675,Saint-Tronc Transformateur,1,,5.427214,43.267014,0,StopArea:CTP-OM14112,,,
StopPoint:OM11676,Saint-Tronc Gauloise,1,,5.426877,43.267824,0,StopArea:CTP-OM14112,,,
StopPoint:OM11677,Saint-Tronc Clair Matin,1,,5.423828,43.269944,0,StopArea:CTP-OM14112,,,
StopPoint:OM11649,Bois Fleury,1,,5.425221,43.270902,0,StopArea:CTP-OM14112,,,
StopPoint:OM11650,Les Roches,1,,5.427745,43.271846,0,StopArea:CTP-OM14112,,,
StopPoint:OM11651,Résidence du Lycée,1,,5.427674,43.273494,0,StopArea:CTP-OM14112,,,
StopPoint:OM11652,Lycée Jean Perrin,1,,5.426771,43.274545,0,StopArea:CTP-OM14112,,,
StopPoint:OM14333,Centre Commercial Saint-Loup,1,,5.427422,43.277269,0,StopArea:CTP-OM14112,,,
StopPoint:OM11681,La Fauviere,1,,5.428075,43.278428,0,StopArea:CTP-OM14112,,,
StopPoint:OM12664,Boulevard des Pins,1,,5.429601,43.27797,0,StopArea:CTP-OM14112,,,
StopPoint:OM11682,Chante Perdrix,1,,5.431577,43.276277,0,StopArea:CTP-OM14112,,,
StopPoint:OM11683,Château Saint-Loup,1,,5.434179,43.274772,0,StopArea:CTP-OM14112,,,
StopPoint:OM11684,Les Trois Ponts,1,,5.435756,43.27389,0,StopArea:CTP-OM14112,,,
StopPoint:OM11685,3 Ponts Canal,1,,5.437359,43.274626,0,StopArea:CTP-OM14112,,,
StopPoint:OM12896,Les Bruyères,1,,5.438922,43.274704,0,StopArea:CTP-OM14112,,,
StopPoint:OM12127,Parc,1,,5.440252,43.274876,0,StopArea:CTP-OM14112,,,
StopPoint:OM11686,Parc des Bruyères,1,,5.439169,43.274582,0,StopArea:CTP-OM14112,,,
StopPoint:OM11656,Lycée Jean Perrin,1,,5.426296,43.274648,0,StopArea:CTP-OM14112,,,
StopPoint:OM11687,3 Ponts Canal,1,,5.437674,43.274761,0,StopArea:CTP-OM14112,,,
StopPoint:OM11688,Les Trois Ponts,1,,5.435789,43.274033,0,StopArea:CTP-OM14112,,,
StopPoint:OM11689,Château Saint-Loup,1,,5.43365,43.275462,0,StopArea:CTP-OM14112,,,
StopPoint:OM11690,Chante Perdrix,1,,5.432038,43.276147,0,StopArea:CTP-OM14112,,,
StopPoint:OM12666,Boulevard des Pins,1,,5.4296,43.278177,0,StopArea:CTP-OM14112,,,
StopPoint:OM11691,La Fauviere,1,,5.42802,43.278546,0,StopArea:CTP-OM14112,,,
StopPoint:OM11655,La Germaine,1,,5.426709,43.276597,0,StopArea:CTP-OM14112,,,
StopPoint:OM11657,Résidence du Lycée,1,,5.427248,43.273578,0,StopArea:CTP-OM14112,,,
StopPoint:OM11658,Les Roches,1,,5.427347,43.271983,0,StopArea:CTP-OM14112,,,
StopPoint:OM11659,Bois Fleury,1,,5.424766,43.270915,0,StopArea:CTP-OM14112,,,
StopPoint:OM11668,Saint-Tronc Clair Matin,1,,5.423797,43.269819,0,StopArea:CTP-OM14112,,,
StopPoint:OM11669,Saint-Tronc Gauloise,1,,5.426514,43.267952,0,StopArea:CTP-OM14112,,,
StopPoint:OM11670,Saint-Tronc Transformateur,1,,5.426803,43.266684,0,StopArea:CTP-OM14112,,,
StopPoint:OM11671,Toulouse Val des Bois,1,,5.423104,43.26724,0,StopArea:CTP-OM14112,,,
StopPoint:OM11672,Toulouse Claudel,1,,5.420913,43.26769,0,StopArea:CTP-OM14112,,,
StopPoint:OM11662,Vallon de Toulouse,1,,5.416694,43.26817,0,StopArea:CTP-OM14112,,,
StopPoint:OM11663,Claudel Mairie 9-10,1,,5.41482,43.268332,0,StopArea:CTP-OM14112,,,
StopPoint:OM11664,Saint-Tronc Parc Fleuri,1,,5.411838,43.268022,0,StopArea:CTP-OM14112,,,
StopPoint:OM11665,Claudel Collège Pasteur,1,,5.40991,43.268338,0,StopArea:CTP-OM14112,,,
StopPoint:OM12871,Belle Ombre Romain Rolland,1,,5.408015,43.270874,0,StopArea:CTP-OM14112,,,
StopPoint:OM12681,Trinitaires Romain Rolland,1,,5.407468,43.270988,0,StopArea:CTP-OM14112,,,
StopPoint:OM11639,Métro Sainte-Marguerite Dromel,1,,5.403255,43.27091,0,StopArea:CTP-OM14112,,,
StopPoint:OM14164,La Clairière,1,,5.424199,43.26541,0,StopArea:CTP-OM14112,,,
StopPoint:OM14165,Val de Bois,1,,5.422709,43.264005,0,StopArea:CTP-OM14112,,,
StopPoint:OM14166,Grande Bastide,1,,5.420931,43.263726,0,StopArea:CTP-OM14112,,,
StopPoint:OM12933,Collège Gyptis,1,,5.420315,43.264344,0,StopArea:CTP-OM14112,,,
StopPoint:OM14167,Grande Bastide,1,,5.421139,43.263468,0,StopArea:CTP-OM14112,,,
StopPoint:OM14168,Val de Bois,1,,5.422775,43.264084,0,StopArea:CTP-OM14112,,,
StopPoint:OM14169,La Clairière,1,,5.424286,43.265426,0,StopArea:CTP-OM14112,,,
StopPoint:OM11678,Métro Sainte-Marguerite Dromel,1,,5.403382,43.271213,0,StopArea:CTP-OM14112,,,
StopPoint:OM11621,Romain Rolland Belle Ombre,1,,5.408096,43.270772,0,StopArea:CTP-OM14112,,,
StopPoint:OM11622,Pauline Ripert,1,,5.410715,43.272109,0,StopArea:CTP-OM14112,,,
StopPoint:OM11623,La Sauvagère,1,,5.414228,43.273825,0,StopArea:CTP-OM14112,,,
StopPoint:OM11624,Romain Rolland Pont de Vivaux,1,,5.416766,43.275479,0,StopArea:CTP-OM14112,,,
StopPoint:OM11592,Romain Rolland Icard,1,,5.418275,43.276308,0,StopArea:CTP-OM14112,,,
StopPoint:OM11679,Les Marronniers,1,,5.420232,43.276774,0,StopArea:CTP-OM14112,,,
StopPoint:OM11680,Verdillon,1,,5.422603,43.276004,0,StopArea:CTP-OM14112,,,
StopPoint:OM12820,Lycée J.Perrin,1,,5.423836,43.275357,0,StopArea:CTP-OM14112,,,
StopPoint:OM11653,La Germaine,1,,5.427077,43.276811,0,StopArea:CTP-OM14112,,,
StopPoint:OM11692,Lycée Jean Perrin,1,,5.425161,43.275283,0,StopArea:CTP-OM14112,,,
StopPoint:OM11693,Verdillon,1,,5.422225,43.276294,0,StopArea:CTP-OM14112,,,
StopPoint:OM11694,Les Marronniers,1,,5.420389,43.27694,0,StopArea:CTP-OM14112,,,
StopPoint:OM12351,Romain Rolland Icard,1,,5.419287,43.277043,0,StopArea:CTP-OM14112,,,
StopPoint:OM11634,Romain Rolland Pont de Vivaux,1,,5.416813,43.275676,0,StopArea:CTP-OM14112,,,
StopPoint:OM11635,La Sauvagère,1,,5.414394,43.274162,0,StopArea:CTP-OM14112,,,
StopPoint:OM11636,Pauline Ripert,1,,5.410942,43.272444,0,StopArea:CTP-OM14112,,,
StopPoint:OM11637,Platanes Romain Rolland,1,,5.408729,43.272256,0,StopArea:CTP-OM14112,,,
StopPoint:OM11638,Huveaune Platanes,1,,5.407313,43.273393,0,StopArea:CTP-OM14112,,,
StopPoint:OM11695,Castellane,1,,5.383846,43.285463,0,StopArea:CTP-OM14112,,,
StopPoint:OM12115,Métro Rond-Point du Prado,1,,5.390853,43.272576,0,StopArea:CTP-OM14112,,,
StopPoint:OM11700,Prado Saint-Giniez,1,,5.38657,43.26956,0,StopArea:CTP-OM14112,,,
StopPoint:OM11701,Prado Saint-Exupéry,1,,5.384532,43.268251,0,StopArea:CTP-OM14112,,,
StopPoint:OM11702,Prado Tunis,1,,5.381284,43.266175,0,StopArea:CTP-OM14112,,,
StopPoint:OM11703,Parc Borely,1,,5.377795,43.263954,0,StopArea:CTP-OM14112,,,
StopPoint:OM11704,La Plage,1,,5.375592,43.26256,0,StopArea:CTP-OM14112,,,
StopPoint:OM11705,Plage Planches à Voile,1,,5.375312,43.260059,0,StopArea:CTP-OM14112,,,
StopPoint:OM11706,Hippodrome Plage,1,,5.376367,43.255587,0,StopArea:CTP-OM14112,,,
StopPoint:OM11707,Les Gâtons Plage,1,,5.375566,43.252076,0,StopArea:CTP-OM14112,,,
StopPoint:OM11708,Vieille Chapelle,1,,5.374268,43.247769,0,StopArea:CTP-OM14112,,,
StopPoint:OM11709,Tiboulen,1,,5.373035,43.245376,0,StopArea:CTP-OM14112,,,
StopPoint:OM11710,Pointe Rouge,1,,5.36997,43.2437,0,StopArea:CTP-OM14112,,,
StopPoint:OM13765,Pointe Rouge Port,1,,5.367527,43.242307,0,StopArea:CTP-OM14112,,,
StopPoint:OM11712,Montredon Pastre,1,,5.366024,43.240251,0,StopArea:CTP-OM14112,,,
StopPoint:OM11724,Montredon Pastre,1,,5.367544,43.240388,0,StopArea:CTP-OM14112,,,
StopPoint:OM11725,Montredon Chancel,1,,5.36898,43.241957,0,StopArea:CTP-OM14112,,,
StopPoint:OM11726,Pointe Rouge,1,,5.371214,43.243971,0,StopArea:CTP-OM14112,,,
StopPoint:OM11727,Tiboulen,1,,5.373048,43.245151,0,StopArea:CTP-OM14112,,,
StopPoint:OM11728,Vieille Chapelle,1,,5.375134,43.24832,0,StopArea:CTP-OM14112,,,
StopPoint:OM11729,Les Gâtons Plage,1,,5.375824,43.252069,0,StopArea:CTP-OM14112,,,
StopPoint:OM11730,Hippodrome Plage,1,,5.376619,43.256857,0,StopArea:CTP-OM14112,,,
StopPoint:OM11732,La Plage,1,,5.375676,43.262288,0,StopArea:CTP-OM14112,,,
StopPoint:OM11733,Parc Borely,1,,5.378073,43.263865,0,StopArea:CTP-OM14112,,,
StopPoint:OM11734,Prado Tunis,1,,5.381769,43.26627,0,StopArea:CTP-OM14112,,,
StopPoint:OM11735,Prado Saint-Exupéry,1,,5.384456,43.267992,0,StopArea:CTP-OM14112,,,
StopPoint:OM11142,Prado Saint-Giniez,1,,5.388533,43.27061,0,StopArea:CTP-OM14112,,,
StopPoint:OM12808,Métro Rond-Point du Prado,1,,5.390685,43.27197,0,StopArea:CTP-OM14112,,,
StopPoint:OM1682,Palama Camoins,1,,5.439357,43.354632,0,StopArea:CTP-OM14112,,,
StopPoint:OM1683,Palama Fumade,1,,5.44024,43.357061,0,StopArea:CTP-OM14112,,,
StopPoint:OM1684,Palama Carroussel,1,,5.441046,43.358288,0,StopArea:CTP-OM14112,,,
StopPoint:OM1685,Palama Écuyers,1,,5.442218,43.359675,0,StopArea:CTP-OM14112,,,
StopPoint:OM1686,Palama Chars,1,,5.442872,43.360834,0,StopArea:CTP-OM14112,,,
StopPoint:OM1687,Château de la Parade,1,,5.441797,43.361234,0,StopArea:CTP-OM14112,,,
StopPoint:OM1688,La Parade Collectifs,1,,5.440078,43.361122,0,StopArea:CTP-OM14112,,,
StopPoint:OM1689,Parade Argelas,1,,5.43749,43.361367,0,StopArea:CTP-OM14112,,,
StopPoint:OM1690,La Parade Pierrots,1,,5.439894,43.361829,0,StopArea:CTP-OM14112,,,
StopPoint:OM1691,La Parade,1,,5.440861,43.363069,0,StopArea:CTP-OM14112,,,
StopPoint:OM1692,La Parade Pierrots,1,,5.439695,43.36179,0,StopArea:CTP-OM14112,,,
StopPoint:OM1693,Parade Argelas,1,,5.437512,43.361538,0,StopArea:CTP-OM14112,,,
StopPoint:OM1694,La Parade Collectifs,1,,5.440221,43.361028,0,StopArea:CTP-OM14112,,,
StopPoint:OM1695,Château de la Parade,1,,5.441665,43.361301,0,StopArea:CTP-OM14112,,,
StopPoint:OM1696,Palama Chars,1,,5.442735,43.360793,0,StopArea:CTP-OM14112,,,
StopPoint:OM1697,Palama Écuyers,1,,5.44211,43.359732,0,StopArea:CTP-OM14112,,,
StopPoint:OM1698,Palama Carroussel,1,,5.440928,43.358381,0,StopArea:CTP-OM14112,,,
StopPoint:OM1699,Palama Fumade,1,,5.440216,43.357296,0,StopArea:CTP-OM14112,,,
StopPoint:OM1700,Palama Camoins,1,,5.439196,43.354843,0,StopArea:CTP-OM14112,,,
StopPoint:OM1701,Château Gombert,1,,5.438062,43.353248,0,StopArea:CTP-OM14112,,,
StopPoint:OM11711,Pointe Rouge Port,1,,5.367599,43.242356,0,StopArea:CTP-OM14112,,,
StopPoint:OM11713,Engaliere,1,,5.365601,43.23922,0,StopArea:CTP-OM14112,,,
StopPoint:OM12876,Montredon Miremonts,1,,5.363122,43.237129,0,StopArea:CTP-OM14112,,,
StopPoint:OM11714,Grotte Rolland,1,,5.362593,43.23676,0,StopArea:CTP-OM14112,,,
StopPoint:OM11715,Verrerie,1,,5.359495,43.234671,0,StopArea:CTP-OM14112,,,
StopPoint:OM11716,Madrague Lieutenant Moulin,1,,5.358075,43.233641,0,StopArea:CTP-OM14112,,,
StopPoint:OM11717,Madrague Mont Rose,1,,5.355451,43.231916,0,StopArea:CTP-OM14112,,,
StopPoint:OM11720,Madrague Lieutenant Moulin,1,,5.357401,43.232986,0,StopArea:CTP-OM14112,,,
StopPoint:OM11721,Verrerie,1,,5.359619,43.23447,0,StopArea:CTP-OM14112,,,
StopPoint:OM11722,Grotte Rolland,1,,5.36198,43.236103,0,StopArea:CTP-OM14112,,,
StopPoint:OM11723,Engaliere,1,,5.365264,43.238672,0,StopArea:CTP-OM14112,,,
StopPoint:OM12188,Métro la Rose,1,,5.429793,43.333162,0,StopArea:CTP-OM14112,,,
StopPoint:OM12146,La Croix Rouge,1,,5.45083,43.3351,0,StopArea:CTP-OM14112,,,
StopPoint:OM12147,Bar 1900,1,,5.452687,43.337313,0,StopArea:CTP-OM14112,,,
StopPoint:OM12148,La Cascade,1,,5.453703,43.338776,0,StopArea:CTP-OM14112,,,
StopPoint:OM12149,Les Madets,1,,5.456832,43.340799,0,StopArea:CTP-OM14112,,,
StopPoint:OM12150,Plan de Cuques Cinéma,1,,5.45832,43.343481,0,StopArea:CTP-OM14112,,,
StopPoint:OM12151,Plan de Cuques Félibrige,1,,5.460092,43.344338,0,StopArea:CTP-OM14112,,,
StopPoint:OM12152,Plan de Cuques Église,1,,5.464348,43.347811,0,StopArea:CTP-OM14112,,,
StopPoint:OM12153,Les Moisserons,1,,5.466158,43.348469,0,StopArea:CTP-OM14112,,,
StopPoint:OM12154,Pasteur Noria,1,,5.467501,43.352513,0,StopArea:CTP-OM14112,,,
StopPoint:OM12155,Les Vidares,1,,5.466393,43.355018,0,StopArea:CTP-OM14112,,,
StopPoint:OM12156,Transformateur,1,,5.466636,43.358582,0,StopArea:CTP-OM14112,,,
StopPoint:OM12157,École Maternelle,1,,5.464915,43.360008,0,StopArea:CTP-OM14112,,,
StopPoint:OM12159,La Montade,1,,5.464564,43.360126,0,StopArea:CTP-OM14112,,,
StopPoint:OM12158,Transformateur,1,,5.466305,43.357701,0,StopArea:CTP-OM14112,,,
StopPoint:OM12160,Les Vidares,1,,5.466177,43.354908,0,StopArea:CTP-OM14112,,,
StopPoint:OM12161,Pasteur Noria,1,,5.467461,43.352235,0,StopArea:CTP-OM14112,,,
StopPoint:OM12162,Les Roubauds,1,,5.468968,43.349152,0,StopArea:CTP-OM14112,,,
StopPoint:OM12163,L'Elysee,1,,5.472444,43.351416,0,StopArea:CTP-OM14112,,,
StopPoint:OM12164,L'Hermitage,1,,5.473408,43.351694,0,StopArea:CTP-OM14112,,,
StopPoint:OM12165,Bon Rencontre,1,,5.479214,43.351947,0,StopArea:CTP-OM14112,,,
StopPoint:OM12166,Les Chanauds,1,,5.482282,43.352595,0,StopArea:CTP-OM14112,,,
StopPoint:OM12463,Le Logis Neuf Centre Médical,1,,5.48482,43.354382,0,StopArea:CTP-OM14112,,,
StopPoint:OM12167,Moulin à Huile,1,,5.486598,43.355796,0,StopArea:CTP-OM14112,,,
StopPoint:OM12168,Logis Neuf Écoles,1,,5.48809,43.356931,0,StopArea:CTP-OM14112,,,
StopPoint:OM12169,La Bourdonniere,1,,5.491507,43.357883,0,StopArea:CTP-OM14112,,,
StopPoint:OM12419,Mas des Oliviers,1,,5.494025,43.361074,0,StopArea:CTP-OM14112,,,
StopPoint:OM12420,La Fève,1,,5.494475,43.362976,0,StopArea:CTP-OM14112,,,
StopPoint:OM12422,Mas des Oliviers,1,,5.493689,43.361236,0,StopArea:CTP-OM14112,,,
StopPoint:OM12190,La Bourdonniere,1,,5.491296,43.358069,0,StopArea:CTP-OM14112,,,
StopPoint:OM12191,Logis Neuf Écoles,1,,5.486721,43.356899,0,StopArea:CTP-OM14112,,,
StopPoint:OM12193,Le Logis Neuf Centre Médical,1,,5.484779,43.35477,0,StopArea:CTP-OM14112,,,
StopPoint:OM12192,Les Chanauds,1,,5.482268,43.352793,0,StopArea:CTP-OM14112,,,
StopPoint:OM12194,Bon Rencontre,1,,5.478645,43.352125,0,StopArea:CTP-OM14112,,,
StopPoint:OM12195,L'Hermitage,1,,5.473392,43.351838,0,StopArea:CTP-OM14112,,,
StopPoint:OM12196,L'Elysee,1,,5.472341,43.351554,0,StopArea:CTP-OM14112,,,
StopPoint:OM12197,Les Roubauds,1,,5.468817,43.349309,0,StopArea:CTP-OM14112,,,
StopPoint:OM12198,Les Moisserons,1,,5.466141,43.348605,0,StopArea:CTP-OM14112,,,
StopPoint:OM12199,Plan de Cuques Église,1,,5.463767,43.347558,0,StopArea:CTP-OM14112,,,
StopPoint:OM12200,Plan de Cuques Félibrige,1,,5.459822,43.344345,0,StopArea:CTP-OM14112,,,
StopPoint:OM12201,Plan de Cuques Cinéma,1,,5.457769,43.343317,0,StopArea:CTP-OM14112,,,
StopPoint:OM12202,Les Madets,1,,5.456546,43.340753,0,StopArea:CTP-OM14112,,,
StopPoint:OM12203,La Cascade,1,,5.45364,43.338976,0,StopArea:CTP-OM14112,,,
StopPoint:OM12204,Bar 1900,1,,5.452865,43.337865,0,StopArea:CTP-OM14112,,,
StopPoint:OM1Bar1900,Bar 1900,1,,5.45269,43.33795,0,StopArea:CTP-OM14112,,,
StopPoint:OM12205,La Croix Rouge,1,,5.450845,43.335388,0,StopArea:CTP-OM14112,,,
StopPoint:OM11619,Métro Sainte-Marguerite Dromel,1,,5.403144,43.271147,0,StopArea:CTP-OM14112,,,
StopPoint:OM11593,Romain Rolland Gymnase,1,,5.42099,43.277813,0,StopArea:CTP-OM14112,,,
StopPoint:OM11594,Lycée Ampère,1,,5.423876,43.279529,0,StopArea:CTP-OM14112,,,
StopPoint:OM11626,Saint-Loup Pagnol,1,,5.433137,43.283048,0,StopArea:CTP-OM14112,,,
StopPoint:OM11627,Saint-Loup de Trets,1,,5.4353,43.283903,0,StopArea:CTP-OM14112,,,
StopPoint:OM11628,Saint-Loup Rose Bruny,1,,5.437903,43.2847,0,StopArea:CTP-OM14112,,,
StopPoint:OM11629,Granada,1,,5.440172,43.284995,0,StopArea:CTP-OM14112,,,
StopPoint:OM11322,Valbarelle Coder,1,,5.457577,43.28861,0,StopArea:CTP-OM14112,,,
StopPoint:OM11323,H.L.M Néréides,1,,5.459673,43.288666,0,StopArea:CTP-OM14112,,,
StopPoint:OM11324,Chemin de la Station,1,,5.46268,43.288291,0,StopArea:CTP-OM14112,,,
StopPoint:OM11325,Saint-Marcel,1,,5.46558,43.28728,0,StopArea:CTP-OM14112,,,
StopPoint:OM12604,Saint-Marcel Cavaillon,1,,5.467874,43.286458,0,StopArea:CTP-OM14112,,,
StopPoint:OM11326,Barasse Tubet,1,,5.470579,43.286181,0,StopArea:CTP-OM14112,,,
StopPoint:OM11327,Barasse Beau Site,1,,5.473852,43.286149,0,StopArea:CTP-OM14112,,,
StopPoint:OM11328,Barasse Chouquet,1,,5.47754,43.286059,0,StopArea:CTP-OM14112,,,
StopPoint:OM12125,Bancal Barasse,1,,5.479887,43.286206,0,StopArea:CTP-OM14112,,,
StopPoint:OM11394,Léon Bancal Saint-Menet,1,,5.481479,43.289424,0,StopArea:CTP-OM14112,,,
StopPoint:OM11395,Saint-Menet,1,,5.479033,43.289721,0,StopArea:CTP-OM14112,,,
StopPoint:OM1638,Village Estellan,1,,5.473486,43.292077,0,StopArea:CTP-OM14112,,,
StopPoint:OM12476,La Valentine Centre Commercial,1,,5.47575,43.29452,0,StopArea:CTP-OM14112,,,
StopPoint:OM12507,La Valentelle,1,,5.476109,43.296362,0,StopArea:CTP-OM14112,,,
StopPoint:OM12457,La Valentelle,1,,5.475798,43.296748,0,StopArea:CTP-OM14112,,,
StopPoint:OM11382,La Valentine Centre Commercial,1,,5.474927,43.294103,0,StopArea:CTP-OM14112,,,
StopPoint:OM1640,Village Estellan,1,,5.473057,43.291882,0,StopArea:CTP-OM14112,,,
StopPoint:OM11383,Saint-Menet,1,,5.477301,43.289789,0,StopArea:CTP-OM14112,,,
StopPoint:OM11384,Léon Bancal Saint-Menet,1,,5.480568,43.289649,0,StopArea:CTP-OM14112,,,
StopPoint:OM11385,Bancal Barasse,1,,5.479572,43.286306,0,StopArea:CTP-OM14112,,,
StopPoint:OM11372,Barasse Bancal,1,,5.479028,43.286043,0,StopArea:CTP-OM14112,,,
StopPoint:OM11373,Barasse Chouquet,1,,5.47603,43.286355,0,StopArea:CTP-OM14112,,,
StopPoint:OM11374,Barasse Beau Site,1,,5.472904,43.286383,0,StopArea:CTP-OM14112,,,
StopPoint:OM11375,Barasse Tubet,1,,5.471071,43.286392,0,StopArea:CTP-OM14112,,,
StopPoint:OM12606,Saint-Marcel Cavaillon,1,,5.467886,43.286682,0,StopArea:CTP-OM14112,,,
StopPoint:OM11376,Saint-Marcel,1,,5.464829,43.287742,0,StopArea:CTP-OM14112,,,
StopPoint:OM11377,Chemin de la Station,1,,5.46204,43.288732,0,StopArea:CTP-OM14112,,,
StopPoint:OM11378,H.L.M Néréides,1,,5.459351,43.288873,0,StopArea:CTP-OM14112,,,
StopPoint:OM11379,Valbarelle Coder,1,,5.456588,43.288773,0,StopArea:CTP-OM14112,,,
StopPoint:OM11630,Granada,1,,5.43952,43.285005,0,StopArea:CTP-OM14112,,,
StopPoint:OM11631,Saint-Loup Rose Bruny,1,,5.436991,43.284673,0,StopArea:CTP-OM14112,,,
StopPoint:OM11632,Saint-Loup de Trets,1,,5.434126,43.283586,0,StopArea:CTP-OM14112,,,
StopPoint:OM11606,Lycée Ampère,1,,5.424025,43.279794,0,StopArea:CTP-OM14112,,,
StopPoint:OM11607,Romain Rolland Gymnase,1,,5.421208,43.27822,0,StopArea:CTP-OM14112,,,
StopPoint:OM11647,Saint-Tronc la Rose,1,,5.420314,43.268903,0,StopArea:CTP-OM14112,,,
StopPoint:OM11648,Saint-Tronc,1,,5.422776,43.270064,0,StopArea:CTP-OM14112,,,
StopPoint:OM11660,Saint-Tronc,1,,5.422771,43.270199,0,StopArea:CTP-OM14112,,,
StopPoint:OM11661,Saint-Tronc la Rose,1,,5.419957,43.268895,0,StopArea:CTP-OM14112,,,
StopPoint:OM12186,Métro la Rose,1,,5.429714,43.333056,0,StopArea:CTP-OM14112,,,
StopPoint:OM12173,La Louise,1,,5.459238,43.332716,0,StopArea:CTP-OM14112,,,
StopPoint:OM12174,La Pounche les Ourmes,1,,5.461272,43.332981,0,StopArea:CTP-OM14112,,,
StopPoint:OM12175,Quartier de la Pounche,1,,5.464074,43.332621,0,StopArea:CTP-OM14112,,,
StopPoint:OM12176,Les Toits de la Pounche,1,,5.465702,43.333104,0,StopArea:CTP-OM14112,,,
StopPoint:OM12177,Les Écoles,1,,5.466703,43.334523,0,StopArea:CTP-OM14112,,,
StopPoint:OM12178,Cantons Rouges,1,,5.465468,43.337392,0,StopArea:CTP-OM14112,,,
StopPoint:OM12584,Collège Yves Montand,1,,5.463432,43.337343,0,StopArea:CTP-OM14112,,,
StopPoint:OM12179,Le Bocage,1,,5.470293,43.337989,0,StopArea:CTP-OM14112,,,
StopPoint:OM12180,La Tirane,1,,5.471989,43.337679,0,StopArea:CTP-OM14112,,,
StopPoint:OM12181,Hôpital Mille Écus,1,,5.473898,43.337902,0,StopArea:CTP-OM14112,,,
StopPoint:OM12182,Henri Tasso,1,,5.477006,43.338171,0,StopArea:CTP-OM14112,,,
StopPoint:OM12892,Le Grand Puits Pie d'Autry,1,,5.479461,43.338568,0,StopArea:CTP-OM14112,,,
StopPoint:OM12183,Les Cigales,1,,5.482793,43.339675,0,StopArea:CTP-OM14112,,,
StopPoint:OM12184,Saint-Roch,1,,5.484174,43.339256,0,StopArea:CTP-OM14112,,,
StopPoint:OM12185,Allauch,1,,5.482384,43.336719,0,StopArea:CTP-OM14112,,,
StopPoint:OM12206,Saint-Roch,1,,5.484611,43.339361,0,StopArea:CTP-OM14112,,,
StopPoint:OM12207,Les Cigales,1,,5.482693,43.339875,0,StopArea:CTP-OM14112,,,
StopPoint:OM12208,Le Grand Puits Pie d'Autry,1,,5.479496,43.338433,0,StopArea:CTP-OM14112,,,
StopPoint:OM12209,Henri Tasso,1,,5.476607,43.338326,0,StopArea:CTP-OM14112,,,
StopPoint:OM12210,Hôpital Mille Écus,1,,5.473949,43.338161,0,StopArea:CTP-OM14112,,,
StopPoint:OM12211,La Tirane,1,,5.471586,43.337978,0,StopArea:CTP-OM14112,,,
StopPoint:OM12212,Le Bocage,1,,5.469634,43.338323,0,StopArea:CTP-OM14112,,,
StopPoint:OM12213,Cantons Rouges,1,,5.465195,43.337364,0,StopArea:CTP-OM14112,,,
StopPoint:OM12214,Les Écoles,1,,5.466501,43.33443,0,StopArea:CTP-OM14112,,,
StopPoint:OM12215,Les Toits de la Pounche,1,,5.465944,43.333475,0,StopArea:CTP-OM14112,,,
StopPoint:OM12216,Quartier de la Pounche,1,,5.462825,43.33299,0,StopArea:CTP-OM14112,,,
StopPoint:OM12217,La Pounche les Ourmes,1,,5.460738,43.333122,0,StopArea:CTP-OM14112,,,
StopPoint:OM12218,La Louise,1,,5.459122,43.332855,0,StopArea:CTP-OM14112,,,
StopPoint:OM14155,Giono Libération,1,,5.458665,43.344145,0,StopArea:CTP-OM14112,,,
StopPoint:OM14158,Giono Libération,1,,5.458802,43.344186,0,StopArea:CTP-OM14112,,,
StopPoint:OM14156,Rond-Point des Oliviers,1,,5.463401,43.343783,0,StopArea:CTP-OM14112,,,
StopPoint:OM14173,Bougainville,1,,5.468293,43.34311,0,StopArea:CTP-OM14112,,,
StopPoint:OM14174,Les Blacassins,1,,5.471332,43.341889,0,StopArea:CTP-OM14112,,,
StopPoint:OM14364,Canton Vert,1,,5.474156,43.338551,0,StopArea:CTP-OM14112,,,
StopPoint:OM14175,Les Blacassins,1,,5.471251,43.341999,0,StopArea:CTP-OM14112,,,
StopPoint:OM14176,Bougainville,1,,5.467386,43.343415,0,StopArea:CTP-OM14112,,,
StopPoint:OM14157,Rond-Point des Oliviers,1,,5.463204,43.34378,0,StopArea:CTP-OM14112,,,
StopPoint:OM11329,La Barasse,1,,5.480381,43.285571,0,StopArea:CTP-OM14112,,,
StopPoint:OM11330,Gare de la Barasse,1,,5.484818,43.284551,0,StopArea:CTP-OM14112,,,
StopPoint:OM11331,H.L.M la Barasse,1,,5.488455,43.284418,0,StopArea:CTP-OM14112,,,
StopPoint:OM11332,Montgrand,1,,5.493947,43.283573,0,StopArea:CTP-OM14112,,,
StopPoint:OM11333,La Millière,1,,5.500388,43.283402,0,StopArea:CTP-OM14112,,,
StopPoint:OM11386,Solitude Millière,1,,5.502222,43.283186,0,StopArea:CTP-OM14112,,,
StopPoint:OM11387,Solitude Escourtines,1,,5.501656,43.281179,0,StopArea:CTP-OM14112,,,
StopPoint:OM11388,Escourtines Écoles,1,,5.503241,43.280009,0,StopArea:CTP-OM14112,,,
StopPoint:OM11389,Les Escourtines,1,,5.504687,43.281,0,StopArea:CTP-OM14112,,,
StopPoint:OM11390,Les Escourtines,1,,5.504458,43.281313,0,StopArea:CTP-OM14112,,,
StopPoint:OM11391,Les Escourtines Écoles,1,,5.502446,43.280095,0,StopArea:CTP-OM14112,,,
StopPoint:OM11392,Solitude Escourtines,1,,5.502203,43.281496,0,StopArea:CTP-OM14112,,,
StopPoint:OM11366,La Millière Solitude,1,,5.501979,43.283679,0,StopArea:CTP-OM14112,,,
StopPoint:OM11367,La Millière,1,,5.498957,43.28357,0,StopArea:CTP-OM14112,,,
StopPoint:OM11368,Montgrand,1,,5.493117,43.283921,0,StopArea:CTP-OM14112,,,
StopPoint:OM11369,H.L.M la Barasse,1,,5.487392,43.284791,0,StopArea:CTP-OM14112,,,
StopPoint:OM11370,Gare de la Barasse,1,,5.483753,43.284888,0,StopArea:CTP-OM14112,,,
StopPoint:OM11371,La Barasse,1,,5.481159,43.285612,0,StopArea:CTP-OM14112,,,
StopPoint:OM1810,Canebière Bourse,1,,5.376276,43.296405,0,StopArea:CTP-OM14112,,,
StopPoint:OM13313,Canebière Vieux Port,1,,5.374906,43.295528,0,StopArea:CTP-OM14112,,,
StopPoint:OM11419,Vieux Port (Cours Jean Ballard),1,,5.374154,43.293992,0,StopArea:CTP-OM14112,,,
StopPoint:OM11444,Breteuil Puget,1,,5.375552,43.290626,0,StopArea:CTP-OM14112,,,
StopPoint:OM11411,Puget Fortia,1,,5.374653,43.29039,0,StopArea:CTP-OM14112,,,
StopPoint:OM11412,Place de la Corderie,1,,5.372607,43.290349,0,StopArea:CTP-OM14112,,,
StopPoint:OM11413,Petit Chantier,1,,5.369413,43.290466,0,StopArea:CTP-OM14112,,,
StopPoint:OM11475,Saint-Victor,1,,5.366155,43.28938,0,StopArea:CTP-OM14112,,,
StopPoint:OM11476,Endoume Tellène,1,,5.366214,43.28794,0,StopArea:CTP-OM14112,,,
StopPoint:OM11477,Endoume Taddei,1,,5.364193,43.287187,0,StopArea:CTP-OM14112,,,
StopPoint:OM11478,Vallon Jourdan,1,,5.363042,43.286365,0,StopArea:CTP-OM14112,,,
StopPoint:OM14189,Vieux Chemin d'Endoume,1,,5.360871,43.286283,0,StopArea:CTP-OM14112,,,
StopPoint:OM11479,Bompard Endoume,1,,5.359995,43.28485,0,StopArea:CTP-OM14112,,,
StopPoint:OM11480,Bompard Rigaud,1,,5.361103,43.281807,0,StopArea:CTP-OM14112,,,
StopPoint:OM11481,Bompard Baulieue,1,,5.360213,43.281041,0,StopArea:CTP-OM14112,,,
StopPoint:OM11482,Bompard Fideli,1,,5.360666,43.280619,0,StopArea:CTP-OM14112,,,
StopPoint:OM11483,Bompard,1,,5.360269,43.279304,0,StopArea:CTP-OM14112,,,
StopPoint:OM11484,Bompard,1,,5.360513,43.279261,0,StopArea:CTP-OM14112,,,
StopPoint:OM11485,Bompard Fideli,1,,5.3608,43.280703,0,StopArea:CTP-OM14112,,,
StopPoint:OM11486,Bompard Rigaud,1,,5.361233,43.282181,0,StopArea:CTP-OM14112,,,
StopPoint:OM11487,Bompard Endoume,1,,5.360223,43.284727,0,StopArea:CTP-OM14112,,,
